SITE_ID,VISIT_NO,UID,DATE_COL,AGGR_ECO3_2015,AGGR_ECO9_2015,AREA_HA,BORD_LAKE,CAT_UNIQUE,CH0712_CAT,CH0712_USE,CH0712_WGT,COMID2007,COMID2012,COMIDS2007,ELEVATION,EPA_REG,EVALSTAT,HUC2,HUC8,LAKE_ORIGIN,LAKE_ORIGIN12,LAT_DD83,LON_DD83,EVAL_NAME,NARS_NAME,PERIM_KM,RCHCODE,EVALSTAT,STATUS,RT_NLA12,SITEID_07,SITETYPE,SIZE_CLASS,STATE,STRATUM,WGT_ALL,WGT_CAT,XCOORD,YCOORD,REF_NLA12_NUTR,RT_NLA12_BENT,RT_NLA12_ZOOP,TNT
NLA12_AL-101,1,6300,5/24/2012,EHIGH,SAP,1301.87197,No,NLA07RVT,NLA07_RVT12,Include,20.28888476,21656744,166759236,21656744,57.03,Region_4,TargetSampleable,3,3160112,MAN_MADE,RESERVOIR,33.29204144,-87.3913824,Holt Lock and Dam,Holt Lock and Dam,104.2086662,3.16E+12,TargetSampleable,Target_Sampled,T,NLA06608-2187,PROB,>50,AL,AL_NLA07RVT,20.28888476,AL_>4,795432.2051,-434840.7897,NA,T,T,Target
NLA12_AL-101,2,7374,7/21/2012,EHIGH,SAP,1301.87197,No,NLA07RVT,NLA07_RVT12,Include,20.28888476,21656744,166759236,21656744,57.03,Region_4,TargetSampleable,3,3160112,MAN_MADE,RESERVOIR,33.29204144,-87.3913824,Holt Lock and Dam,Holt Lock and Dam,104.2086662,3.16E+12,TargetSampleable,Target_Sampled,T,NLA06608-2187,PROB,>50,AL,AL_NLA07RVT,20.28888476,AL_>4,795432.2051,-434840.7897,NA,T,T,Target
NLA12_AL-102,1,7228,7/17/2012,EHIGH,SAP,72.95042027,No,NLA07RVT,NLA07_RVT12,Include,46.61790206,18587568,18587568,18587568,247.04,Region_4,TargetSampleable,3,3160109,MAN_MADE,RESERVOIR,34.22781586,-86.84344912,George Lake,George Lake,11.87230532,3.16E+12,TargetSampleable,Target_Sampled,S,NLA06608-0459,PROB,>50,AL,AL_NLA07RVT,46.61790206,AL_>4,835851.301,-326047.1005,NA,S,S,Target
NLA12_AL-103,1,7292,7/19/2012,EHIGH,SAP,10363.25848,No,NLA07RVT,NLA07_RVT12,Include,51.33189892,22273142,166759059,22273142,141.76,Region_4,TargetSampleable,3,3150106,MAN_MADE,RESERVOIR,33.7624784,-86.05315833,Logan Martin Lake,NA,688.4591342,3.15E+12,TargetSampleable,Target_Sampled,S,NLA06608-2955,PROB,>50,AL,AL_NLA07RVT,51.33189892,AL_>4,913172.7602,-370517.4939,NA,S,S,Target
NLA12_AL-104,1,7368,7/23/2012,PLNLOW,CPL,4731.474336,No,NLA07RVT,NLA07_RVT12,Include,101.4910459,21677972,21677972,21677972,22.28,Region_4,TargetSampleable,3,3160201,MAN_MADE,RESERVOIR,32.51586852,-87.86108477,Demopolis Lake,NA,698.1088203,3.16E+12,TargetSampleable,Target_Sampled,S,NLA06608-0283,PROB,>50,AL,AL_NLA07RVT,101.4910459,AL_>4,759549.5573,-524956.9932,NA,S,S,Target
NLA12_AL-105,1,6267,5/23/2012,PLNLOW,CPL,32.56146308,No,NLA12NEW,NLA12_BASE,Include,83.37696313,21639448,21639448,21639448,50.83,Region_4,TargetSampleable,3,3160203,MAN_MADE,RESERVOIR,31.62154629,-88.35373896,Emmit Wood Lake,Emmit Wood Lake,2.998953879,3.16E+12,TargetSampleable,Target_Sampled,S,NA,PROB,"(20,50]",AL,AL_NLA12NEW,83.37696313,AL_>4,721685.4392,-628108.2923,NA,S,S,Target
NLA12_AL-105,2,7394,7/24/2012,PLNLOW,CPL,32.56146308,No,NLA12NEW,NLA12_BASE,Include,83.37696313,21639448,21639448,21639448,50.83,Region_4,TargetSampleable,3,3160203,MAN_MADE,RESERVOIR,31.62154629,-88.35373896,Emmit Wood Lake,Emmit Wood Lake,2.998953879,3.16E+12,TargetSampleable,Target_Sampled,S,NA,PROB,"(20,50]",AL,AL_NLA12NEW,83.37696313,AL_>4,721685.4392,-628108.2923,NA,S,S,Target
NLA12_AL-106,NA,NA,NA,PLNLOW,CPL,2.259936169,No,NLA12NEW,NLA12_BASE,Exclude,2390.5,2212554,2212554,2212554,96.12,Region_4,AccessDenied,3,3140202,MAN_MADE,MAN_MADE,31.39484325,-86.00721724,Unnamed,NA,0.65741193,3.14E+12,AccessDenied,Target_Denied,NA,NA,PROB,"(1,4]",AL,AL_NLA12NEW,2390.5,"AL_(1,4]",945087.9098,-632659.0215,NA,NA,NA,Target_Presumed
NLA12_AL-107,NA,NA,NA,PLNLOW,CPL,13.35993011,No,NLA12NEW,NLA12_BASE,Include,150.3432224,21679912,21679912,21679912,77.74,Region_4,AccessDenied,3,3150201,MAN_MADE,MAN_MADE,32.18713577,-86.50841536,Harrell Lake,Harrell Lake,1.992118953,3.15E+12,AccessDenied,Target_Denied,NA,NA,PROB,"(10,20]",AL,AL_NLA12NEW,150.3432224,AL_>4,889049.3053,-549716.4083,NA,NA,NA,Target_Presumed
NLA12_AL-108,NA,NA,NA,EHIGH,SAP,2.666005278,No,NLA12NEW,NLA12_BASE,Exclude,2390.5,18563971,18563971,18563971,181.48,Region_4,Nontarget-TooSmall,3,3160111,NA,NA,33.86882068,-86.62367709,Unnamed,NA,0.885433413,3.16E+12,Nontarget-TooSmall,Lake_LT_1ha,NA,NA,PROB,"(1,4]",AL,AL_NLA12NEW,2390.5,"AL_(1,4]",859800.9788,-364018.9233,NA,NA,NA,NonTarget
NLA12_AL-109,NA,NA,NA,PLNLOW,CPL,10.65408828,No,NLA12NEW,NLA12_BASE,Include,150.3432224,445080,445080,445080,83.23,Region_4,Nontarget-NotLake,3,3140305,NA,NA,31.07411321,-87.40975524,NA,NA,1.53303592,3.14E+12,Nontarget-NotLake,Not_Lake,NA,NA,PROB,"(10,20]",AL,AL_NLA12NEW,150.3432224,AL_>4,816052.2952,-681169.8078,NA,NA,NA,NonTarget
NLA12_AL-110,NA,NA,NA,EHIGH,SAP,12.81513476,No,NLA12NEW,NLA12_BASE,Include,150.3432224,19644250,19644250,19644250,181.82,Region_4,Nontarget-NotLake,6,6030001,NA,NA,34.87348351,-85.77044459,NA,NA,2.377971274,6.03E+12,Nontarget-NotLake,Not_Lake,NA,NA,PROB,"(10,20]",AL,AL_NLA12NEW,150.3432224,AL_>4,925683.9696,-244270.5613,NA,NA,NA,NonTarget
NLA12_AL-111,NA,NA,NA,PLNLOW,CPL,4.177936778,No,NLA12NEW,NLA12_BASE,Include,546.5717263,3434760,3434760,3434760,122.24,Region_4,Nontarget-Ephemeral,3,3130003,NA,NA,32.34571752,-85.23421352,Lake Lenora,Lake Lenora,1.527309271,3.13E+12,Nontarget-Ephemeral,Non_Target,NA,NA,PROB,"(4,10]",AL,AL_NLA12NEW,546.5717263,AL_>4,1005921.257,-519435.2001,NA,NA,NA,NonTarget
NLA12_AL-112,1,7375,7/22/2012,PLNLOW,CPL,5.55544262,No,NLA12NEW,NLA12_BASE,Include,546.5717263,18628452,18628452,18628452,78.07,Region_4,TargetSampleable,3,3160106,MAN_MADE,RESERVOIR,33.36486204,-88.16688028,Shepherds Lake,Shepherds Lake,1.293121817,3.16E+12,TargetSampleable,Target_Sampled,R,NA,PROB,"(4,10]",AL,AL_NLA12NEW,546.5717263,AL_>4,723277.5477,-432936.8207,R,R,R,Target
NLA12_AL-113,1,7769,8/8/2012,PLNLOW,CPL,29.40501835,No,NLA12NEW,NLA12_BASE,Include,83.37696313,18522817,18522817,18522817,13.99,Region_4,TargetSampleable,3,3160204,MAN_MADE,RESERVOIR,30.97184148,-88.0527428,Salco Lake,NA,3.81355553,3.16E+12,TargetSampleable,Target_Sampled,S,NA,PROB,"(20,50]",AL,AL_NLA12NEW,83.37696313,AL_>4,756068.3337,-697819.2195,NA,S,S,Target
NLA12_AL-114,1,7459,7/26/2012,EHIGH,SAP,18.10471487,No,NLA12NEW,NLA12_BASE,Include,150.3432224,22200659,22200659,22200659,171.04,Region_4,TargetSampleable,3,3150106,MAN_MADE,RESERVOIR,33.88200988,-85.9316179,Lees Lake,NA,3.585987135,3.15E+12,TargetSampleable,Target_Sampled,S,NA,PROB,"(10,20]",AL,AL_NLA12NEW,150.3432224,AL_>4,922876.9685,-356061.8371,NA,S,S,Target
NLA12_AL-R03,1,7291,7/18/2012,EHIGH,SAP,22.42053898,No,NA,NA,NA,NA,22033983,22033983,22033983,317.68,Region_4,TargetSampleable,3,3150109,MAN_MADE,MAN_MADE,33.32192301,-85.81071637,NO NAME,NA,4.766510605,3.15E+12,TargetSampleable,Target_Sampled,R,NLA06608-1871,HAND,NA,AL,NA,NA,NA,940611.5175,-417082.6656,R,R,R,Target
NLA12_AL-R05,1,7376,7/21/2012,PLNLOW,CPL,91.03472955,No,NA,NA,NA,NA,18203922,18203922,18203922,71.04,Region_4,TargetSampleable,3,3160113,MAN_MADE,MAN_MADE,33.28949519,-87.68596227,LAKE LURLEEN,Lake Lurleen,11.21361901,3.16E+12,TargetSampleable,Target_Sampled,R,NLA06608-4509,HAND,NA,AL,AL_NLA12NEW,NA,NA,768308.7168,-437547.5639,R,B,R,Target
NLA12_AR-101,1,7392,7/23/2012,PLNLOW,CPL,105.7849996,No,NLA07RVT,NLA07_RVT12,Include,140.6756261,22845861,22845861,22845861,74.14,Region_6,TargetSampleable,11,11110207,MAN_MADE,RESERVOIR,34.53435079,-92.26882632,Ferguson Lake,Ferguson Lake,9.08146137,1.11E+13,TargetSampleable,Target_Sampled,S,NLA06608-1808,PROB,>50,AR,AR_NLA07RVT,140.6756261,AR_>4,339693.0075,-325402.8385,NA,S,S,Target
NLA12_AR-101,2,8021,8/17/2012,PLNLOW,CPL,105.7849996,No,NLA07RVT,NLA07_RVT12,Include,140.6756261,22845861,22845861,22845861,74.14,Region_6,TargetSampleable,11,11110207,MAN_MADE,RESERVOIR,34.53435079,-92.26882632,Ferguson Lake,Ferguson Lake,9.08146137,1.11E+13,TargetSampleable,Target_Sampled,S,NLA06608-1808,PROB,>50,AR,AR_NLA07RVT,140.6756261,AR_>4,339693.0075,-325402.8385,NA,S,S,Target
NLA12_AR-102,1,8144,8/21/2012,PLNLOW,CPL,95.89252695,No,NLA07RVT,NLA07_RVT12,Include,170.3424876,9272602,9272602,9272602,69.01,Region_6,TargetSampleable,8,8020302,MAN_MADE,RESERVOIR,35.58318947,-90.96294056,Lake Hogue,Lake Hogue,3.883137271,8.02E+12,TargetSampleable,Target_Sampled,S,NLA06608-0208,PROB,>50,AR,AR_NLA07RVT,170.3424876,AR_>4,452269.0854,-202728.2053,NA,S,S,Target
NLA12_AR-103,1,8217,8/24/2012,EHIGH,SAP,2428.921192,No,NLA07RVT,NLA07_RVT12,Include,20.64042006,15237662,167794922,15237662 ; 21996100,118.4,Region_6,TargetSampleable,8,8040101,MAN_MADE,RESERVOIR,34.41755034,-93.07012469,Lake Hamilton,NA,180.208525,8.04E+12,TargetSampleable,Target_Sampled,T,NLA06608-1204,PROB,>50,AR,AR_NLA07RVT,20.64042006,AR_>4,267170.1912,-341014.3283,NA,T,T,Target
NLA12_AR-104,1,7812,8/9/2012,EHIGH,SAP,44.682124,No,NLA07RVT,NLA07_RVT12,Include,174.9925497,7764393,7764393,7764393,203.73,Region_6,TargetSampleable,11,11110202,MAN_MADE,RESERVOIR,35.5624593,-93.63756822,Horsehead Lake,NA,4.738604684,1.11E+13,TargetSampleable,Target_Sampled,R,NLA06608-1484,PROB,"(20,50]",AR,AR_NLA07RVT,174.9925497,AR_>4,212253.9491,-214399.1481,R,B,R,Target
NLA12_AR-105,1,7409,7/24/2012,PLNLOW,CPL,7.29500254,No,NLA12NEW,NLA12_BASE,Include,549.2845394,15219066,15219066,15219066,55.37,Region_6,TargetSampleable,8,8040206,MAN_MADE,RESERVOIR,33.07556301,-92.66059625,Wingfield Lake Number 3,NA,1.551513244,8.04E+12,TargetSampleable,Target_Sampled,R,NA,PROB,"(4,10]",AR,AR_NLA12NEW,549.2845394,AR_>4,309767.1491,-489615.7372,R,R,R,Target
NLA12_AR-105,2,8022,8/16/2012,PLNLOW,CPL,7.29500254,No,NLA12NEW,NLA12_BASE,Include,549.2845394,15219066,15219066,15219066,55.37,Region_6,TargetSampleable,8,8040206,MAN_MADE,RESERVOIR,33.07556301,-92.66059625,Wingfield Lake Number 3,NA,1.551513244,8.04E+12,TargetSampleable,Target_Sampled,R,NA,PROB,"(4,10]",AR,AR_NLA12NEW,549.2845394,AR_>4,309767.1491,-489615.7372,NA,R,R,Target
NLA12_AR-106,1,8121,8/20/2012,EHIGH,SAP,222.5927542,No,NLA12NEW,NLA12_BASE,Include,154.1650994,7548451,7548451,7548451,82.69,Region_6,TargetSampleable,11,11010009,MAN_MADE,RESERVOIR,36.06720319,-91.14242843,Lake Charles,Lake Charles,17.23630001,1.10E+13,TargetSampleable,Target_Sampled,S,NA,PROB,>50,AR,AR_NLA12NEW,154.1650994,AR_>4,433398.5805,-149444.0312,NA,S,S,Target
NLA12_AR-107,1,1000181,8/28/2012,PLNLOW,CPL,62.35713698,No,NLA12NEW,NLA12_BASE,Include,154.1650994,14861265,14861265,14861265,42.28,Region_6,Nontarget-TooShallow,8,8020303,MAN_MADE,MAN_MADE,34.15969851,-91.06794934,NA,NA,8.390642771,8.02E+12,Nontarget-TooShallow,Lake_Shallow,NA,NA,PROB,>50,AR,AR_NLA12NEW,154.1650994,AR_>4,451109.8208,-362251.8565,NA,NA,NA,NonTarget
NLA12_AR-108,1,1000182,8/28/2012,PLNLOW,CPL,6.393528636,No,NLA12NEW,NLA12_BASE,Include,549.2845394,19301587,19301587,19301587,30.42,Region_6,Nontarget-MapError,8,8050002,NA,NA,33.1461337,-91.25357855,NA,NA,1.231512011,8.05E+12,Nontarget-MapError,Not_Lake,NA,NA,PROB,"(4,10]",AR,AR_NLA12NEW,549.2845394,AR_>4,439798.1204,-476196.5356,NA,NA,NA,NonTarget
NLA12_AR-109,1,7811,8/8/2012,PLNLOW,CPL,4.149225261,No,NLA12NEW,NLA12_BASE,Include,549.2845394,3748090,3748090,3748090,107.3,Region_6,TargetSampleable,11,11140109,MAN_MADE,MAN_MADE,33.81796398,-94.05998348,Lake Hospitality,Lake Hospitality,1.003458503,1.11E+13,TargetSampleable,Target_Sampled,S,NA,PROB,"(4,10]",AR,AR_NLA12NEW,549.2845394,AR_>4,178290.4669,-410331.5417,NA,S,S,Target
NLA12_AR-110,1,1000183,8/28/2012,PLNLOW,CPL,68.09260195,No,NLA12NEW,NLA12_BASE,Include,154.1650994,15331440,15331440,15331440,64.95,Region_6,Nontarget-MapError,8,8020401,MAN_MADE,MAN_MADE,34.49339339,-91.93537803,NA,NA,3.338314228,8.02E+12,Nontarget-MapError,Not_Lake,NA,NA,PROB,>50,AR,AR_NLA12NEW,154.1650994,AR_>4,370228.8433,-328733.6761,NA,NA,NA,NonTarget
NLA12_AR-111,1,8145,8/22/2012,PLNLOW,CPL,2.061803018,No,NLA12NEW,NLA12_BASE,Exclude,2762,22845785,22845785,22845785,120,Region_6,TargetSampleable,8,8040203,MAN_MADE,MAN_MADE,34.60033557,-92.50069818,Boswell Lake,NA,0.594248561,8.04E+12,TargetSampleable,Target_Sampled,T,NA,PROB,"(1,4]",AR,AR_NLA12NEW,2762,"AR_(1,4]",318321.15870000003,-318831.5723,NA,T,T,Target
NLA12_AZ-101,1,6187,5/8/2012,WMTNS,XER,373.4884097,No,NLA07RVT,NLA07_RVT12,Include,7.156067619,20476542,20476542,20476542,459,Region_9,TargetSampleable,15,15060106,MAN_MADE,RESERVOIR,33.5692971,-111.5241427,Saguaro Lake,Saguaro Lake,24.14730294,1.51E+13,TargetSampleable,Target_Sampled,S,NLA06608-0834,PROB,>50,AZ,AZ_NLA07RVT,7.156067619,AZ_>4,-1424971.998,-323283.2067,NA,S,S,Target
NLA12_AZ-101,2,6612,6/14/2012,WMTNS,XER,373.4884097,No,NLA07RVT,NLA07_RVT12,Include,7.156067619,20476542,20476542,20476542,459,Region_9,TargetSampleable,15,15060106,MAN_MADE,RESERVOIR,33.5692971,-111.5241427,Saguaro Lake,Saguaro Lake,24.14730294,1.51E+13,TargetSampleable,Target_Sampled,S,NLA06608-0834,PROB,>50,AZ,AZ_NLA07RVT,7.156067619,AZ_>4,-1424971.998,-323283.2067,NA,S,S,Target
NLA12_AZ-102,1,8648,9/19/2012,WMTNS,WMT,119.179815,No,NLA07RVT,NLA07_RVT12,Include,7.156067619,20451100,20451100,20451100,1567,Region_9,TargetSampleable,15,15060202,MAN_MADE,RESERVOIR,34.60431345,-112.4386225,Willow Creek Reservoir,Willow Creek Reservoir,9.13022933,1.51E+13,TargetSampleable,Target_Sampled,T,NLA06608-0569,PROB,>50,AZ,AZ_NLA07RVT,7.156067619,AZ_>4,-1488186.587,-195214.5186,NA,T,T,Target
NLA12_AZ-103,1,7821,8/9/2012,WMTNS,WMT,81.45252873,No,NLA07RVT,NLA07_RVT12,Include,6.498899383,20524727,20524727,20524727,2168,Region_9,TargetSampleable,15,15020015,MAN_MADE,RESERVOIR,35.02357175,-111.4006586,Ashurst Lake,Ashurst Lake,4.683705075,1.50E+13,TargetSampleable,Target_Sampled,T,NLA06608-1641,PROB,>50,AZ,AZ_NLA07RVT,6.498899383,AZ_>4,-1387504.841,-164674.9641,NA,T,T,Target
NLA12_AZ-104,NA,NA,NA,WMTNS,WMT,105.1885899,No,NLA07RVT,NLA07_RVT12,Include,6.637624753,1408811,1408811,1408811,2142.7,Region_9,TargetOther,14,14080204,MAN_MADE,RESERVOIR,36.27620301,-109.2032708,Tsaile Lake,Tsaile Lake,7.881710586,1.41E+13,TargetOther,Target_Other,NA,NLA06608-2372,PROB,>50,AZ,AZ_NLA07RVT,6.637624753,AZ_>4,-1171496.03,-55604.64907,NA,NA,NA,Target_Presumed
NLA12_AZ-105,NA,NA,NA,WMTNS,WMT,49.38286557,No,NLA07RVT,NLA07_RVT12,Include,17.6001161,21745261,21745261,21745261,2066,Region_9,Inaccessible-Barrier/Safety,15,15020008,MAN_MADE,RESERVOIR,34.78637532,-111.2304201,Soldier Annex Lake,Soldier Annex Lake,3.404529751,1.50E+13,Inaccessible-Barrier/Safety,Target_Inacc,NA,NLA06608-0873,PROB,"(20,50]",AZ,AZ_NLA07RVT,17.6001161,AZ_>4,-1376534.313,-193343.0694,NA,NA,NA,Target_Presumed
NLA12_AZ-106,1,8218,8/23/2012,WMTNS,XER,55.00641968,Yes,NLA07RVT,NLA07_RVT12,Include,6.028067123,10001770,10001770,10001770,69.11,Region_9,TargetSampleable,15,15030104,MAN_MADE,MAN_MADE,33.40602291,-114.7138943,Oxbow lake,NA,10.5125494,1.50E+13,TargetSampleable,Target_Sampled,S,NLA06608-0877,PROB,>50,AZ,AZ_NLA07RVT,6.028067123,AZ_>4,-1717863.086,-288476.4616,NA,S,S,Target
NLA12_AZ-107,1,7475,7/26/2012,WMTNS,XER,529.2331386,No,NLA07RVT,NLA07_RVT12,Include,11.19040339,20584396,20584396,20584396,1822,Region_9,TargetSampleable,15,15020001,MAN_MADE,RESERVOIR,34.3606808,-109.363087,Lyman Lake,Lyman Lake,25.91177862,1.50E+13,TargetSampleable,Target_Sampled,T,NLA06608-0895,PROB,>50,AZ,AZ_NLA07RVT,11.19040339,AZ_>4,-1215628.377,-265882.8836,NA,T,T,Target
NLA12_AZ-108,NA,NA,NA,WMTNS,XER,10.14637002,No,NLA12NEW,NLA12_BASE,Include,4.379421579,1405961,1405961,1405961,1756.67,Region_9,Nontarget-Ephemeral,14,14080204,NA,NA,36.7262949,-110.2795479,Unnamed,NA,2.321353363,1.41E+13,Nontarget-Ephemeral,Non_Target,NA,NA,PROB,"(10,20]",AZ,AZ_NLA12NEW,4.379421579,AZ_>4,-1258751.822,8050.929453,NA,NA,NA,NonTarget
NLA12_AZ-109,NA,NA,NA,WMTNS,WMT,2.524544732,No,NLA12NEW,NLA12_BASE,Exclude,17.375,20586586,20586586,20586586,2822.09,Region_9,Nontarget-Ephemeral,15,15020001,NA,NA,33.97999027,-109.313073,Unnamed,NA,0.590002864,1.50E+13,Nontarget-Ephemeral,Non_Target,NA,NA,PROB,"(1,4]",AZ,AZ_NLA12NEW,17.375,"AZ_(1,4]",-1217050.393,-308658.8444,NA,NA,NA,NonTarget
NLA12_AZ-110,NA,NA,NA,WMTNS,WMT,10.90748612,No,NLA12NEW,NLA12_BASE,Include,4.379421579,20492469,20492469,20492469,1723.06,Region_9,Nontarget-NoRecAquatUse,15,15060101,MAN_MADE,MAN_MADE,33.62503157,-110.227374,Phillips Park Tank,Phillips Park Tank,1.483531096,1.51E+13,Nontarget-NoRecAquatUse,Lake_Special_Purpose,NA,NA,PROB,"(10,20]",AZ,AZ_NLA12NEW,4.379421579,AZ_>4,-1305943.818,-335766.2554,NA,NA,NA,NonTarget
NLA12_AZ-111,NA,NA,NA,WMTNS,WMT,1.901674064,No,NLA12NEW,NLA12_BASE,Exclude,17.375,20449988,20449988,20449988,2157.43,Region_9,Nontarget-NoRecAquatUse,15,15060202,MAN_MADE,MAN_MADE,35.21799283,-111.8357564,Reservoir Number 1,Reservoir Number One,0.592703922,1.51E+13,Nontarget-NoRecAquatUse,Lake_Special_Purpose,NA,NA,PROB,"(1,4]",AZ,AZ_NLA12NEW,17.375,"AZ_(1,4]",-1422737.6,-136779.3633,NA,NA,NA,NonTarget
NLA12_AZ-112,NA,NA,NA,WMTNS,XER,1.639144554,No,NLA12NEW,NLA12_BASE,Exclude,17.375,21327667,21327667,21327667,978.52,Region_9,TargetOther,15,15040005,MAN_MADE,MAN_MADE,32.72025402,-109.704908,Dankworth Pond,NA,0.520145826,1.50E+13,TargetOther,Target_Other,NA,NA,PROB,"(1,4]",AZ,AZ_NLA12NEW,17.375,"AZ_(1,4]",-1272840.525,-442767.0477,NA,NA,NA,Target_Presumed
NLA12_AZ-113,NA,NA,NA,WMTNS,WMT,4.284180263,No,NLA12NEW,NLA12_BASE,Include,8.518404325,20584572,20584572,20584572,2792.49,Region_9,Nontarget-TooSmall,15,15020001,NA,NA,34.00425647,-109.3354542,Water Canyon Reservoir,Water Canyon Reservoir,1.215046703,1.50E+13,Nontarget-TooSmall,Lake_LT_1ha,NA,NA,PROB,"(4,10]",AZ,AZ_NLA12NEW,8.518404325,AZ_>4,-1218703.693,-305686.7149,NA,NA,NA,NonTarget
NLA12_AZ-114,NA,NA,NA,WMTNS,XER,3.561658573,No,NLA12NEW,NLA12_BASE,Exclude,17.375,22443804,22443804,22443804,873.56,Region_9,Nontarget-Ephemeral,15,15040007,NA,NA,33.37842471,-110.521809,Unnamed,NA,0.755524371,1.50E+13,Nontarget-Ephemeral,Non_Target,NA,NA,PROB,"(1,4]",AZ,AZ_NLA12NEW,17.375,"AZ_(1,4]",-1336954.019,-358899.6675,NA,NA,NA,NonTarget
NLA12_AZ-115,NA,NA,NA,WMTNS,XER,5.358829274,No,NLA12NEW,NLA12_BASE,Include,8.518404325,20451076,20451076,20451076,1373,Region_9,Nontarget-Ephemeral,15,15060202,NA,NA,34.81490774,-112.4670894,Unnamed,NA,1.084518125,1.51E+13,Nontarget-Ephemeral,Non_Target,NA,NA,PROB,"(4,10]",AZ,AZ_NLA12NEW,8.518404325,AZ_>4,-1486676.676,-171565.7972,NA,NA,NA,NonTarget
NLA12_AZ-116,NA,NA,NA,WMTNS,XER,8.796521678,No,NLA12NEW,NLA12_BASE,Include,8.518404325,15885918,15885918,15885918,428.23,Region_9,Nontarget-Ephemeral,15,15050303,NA,NA,32.93340836,-111.6471482,Lake in the Desert,Lake in the Desert,1.659962444,1.51E+13,Nontarget-Ephemeral,Non_Target,NA,NA,PROB,"(4,10]",AZ,AZ_NLA12NEW,8.518404325,AZ_>4,-1447797.128,-391464.2893,NA,NA,NA,NonTarget
NLA12_AZ-117,NA,NA,NA,WMTNS,WMT,7.294011812,No,NLA12NEW,NLA12_BASE,Include,8.518404325,20485908,20485908,20485908,2696.49,Region_9,AccessDenied,15,15060102,MAN_MADE,RESERVOIR,34.02942949,-109.6210623,A 1 Lake,A One Lake,1.162041853,1.51E+13,AccessDenied,Target_Denied,NA,NA,PROB,"(4,10]",AZ,AZ_NLA12NEW,8.518404325,AZ_>4,-1244225.978,-299200.6202,NA,NA,NA,Target_Presumed
NLA12_AZ-118,1,6192,5/9/2012,WMTNS,XER,8.007210087,No,NLA12NEW,NLA12_BASE,Include,8.518404325,20479908,20479908,20479908,365.97,Region_9,TargetSampleable,15,15060106,MAN_MADE,MAN_MADE,33.38131121,-111.883581,Dobson Lake,NA,2.713057747,1.51E+13,TargetSampleable,Target_Sampled,S,NA,PROB,"(4,10]",AZ,AZ_NLA12NEW,8.518404325,AZ_>4,-1461153.429,-338533.4622,NA,S,S,Target
NLA12_AZ-119,NA,NA,NA,WMTNS,XER,1.897439226,No,NLA12NEW,NLA12_BASE,Exclude,17.375,21436981,21436981,21436981,139.33,Region_9,Nontarget-NotLake,15,15030101,NATURAL,NATURAL,34.76270414,-114.5202856,Unnamed,NA,0.633792907,1.50E+13,Nontarget-NotLake,Not_Lake,NA,NA,PROB,"(1,4]",AZ,AZ_NLA12NEW,17.375,"AZ_(1,4]",-1670953.37,-143195.3356,NA,NA,NA,NonTarget
NLA12_AZ-120,NA,NA,NA,WMTNS,XER,1.550913005,No,NLA12NEW,NLA12_BASE,Exclude,17.375,21308965,21308965,21308965,1385.46,Region_9,Nontarget-Ephemeral,15,15040006,NA,NA,31.63576083,-109.082647,Natural Tanks,Natural Tanks,0.475900445,1.50E+13,Nontarget-Ephemeral,Non_Target,NA,NA,PROB,"(1,4]",AZ,AZ_NLA12NEW,17.375,"AZ_(1,4]",-1232009.214,-570638.4447,NA,NA,NA,NonTarget
NLA12_AZ-121,NA,NA,NA,WMTNS,WMT,2.052100389,No,NLA12NEW,NLA12_BASE,Exclude,17.375,20496949,20496949,20496949,1900.03,Region_9,Nontarget-NoRecAquatUse,15,15060101,MAN_MADE,MAN_MADE,33.48233976,-109.9496887,Double Circle Tank,Double Circle Tank,0.589620217,1.51E+13,Nontarget-NoRecAquatUse,Lake_Special_Purpose,NA,NA,PROB,"(1,4]",AZ,AZ_NLA12NEW,17.375,"AZ_(1,4]",-1282971.043,-355311.3734,NA,NA,NA,NonTarget
NLA12_AZ-122,NA,NA,NA,WMTNS,XER,35.92895576,No,NLA12NEW,NLA12_BASE,Include,3.72925535,21744119,21744119,21744119,1445.68,Region_9,Nontarget-NotLake,15,15020008,NA,NA,35.26957784,-110.8631424,NA,NA,3.102828195,1.50E+13,Nontarget-NotLake,Not_Lake,NA,NA,PROB,"(20,50]",AZ,AZ_NLA12NEW,3.72925535,AZ_>4,-1335192.757,-145194.5359,NA,NA,NA,NonTarget
NLA12_AZ-123,1,8219,8/24/2012,WMTNS,XER,18.87422654,No,NLA12NEW,NLA12_BASE,Include,4.379421579,10001834,10001834,10001834,57.69,Region_9,TargetSampleable,15,15030104,NATURAL,NATURAL_ENH,33.0266436,-114.5090632,Butler Lake,NA,3.259236986,1.50E+13,TargetSampleable,Target_Sampled,T,NA,PROB,"(10,20]",AZ,AZ_NLA12NEW,4.379421579,AZ_>4,-1707496.905,-333711.4927,NA,T,T,Target
NLA12_AZ-124,NA,NA,NA,WMTNS,XER,5.324951816,No,NLA12NEW,NLA12_BASE,Include,8.518404325,3528317,3528317,3528317,1225.29,Region_9,Nontarget-NoRecAquatUse,14,14070006,MAN_MADE,MAN_MADE,36.91343291,-111.4861343,NA,NA,0.931095824,1.41E+13,Nontarget-NoRecAquatUse,Lake_Special_Purpose,NA,NA,PROB,"(4,10]",AZ,AZ_NLA12NEW,8.518404325,AZ_>4,-1360805.719,45391.38706,NA,NA,NA,NonTarget
NLA12_AZ-125,NA,NA,NA,WMTNS,WMT,15.50514181,No,NLA12NEW,NLA12_BASE,Include,4.379421579,20586602,20586602,20586602,2835.7,Region_9,Nontarget-Ephemeral,15,15020001,NA,NA,33.94275065,-109.4828533,Colter Reservoir,Colter Reservoir,2.274265134,1.50E+13,Nontarget-Ephemeral,Non_Target,NA,NA,PROB,"(10,20]",AZ,AZ_NLA12NEW,4.379421579,AZ_>4,-1233056.159,-310590.5806,NA,NA,NA,NonTarget
NLA12_AZ-126,NA,NA,NA,WMTNS,WMT,2.555818157,No,NLA12NEW,NLA12_BASE,Exclude,17.375,21292339,21292339,21292339,1763.93,Region_9,Nontarget-NoRecAquatUse,15,15040007,MAN_MADE,MAN_MADE,33.66822038,-110.4468803,Glade Tank,Glade Tank,0.600417306,1.50E+13,Nontarget-NoRecAquatUse,Lake_Special_Purpose,NA,NA,PROB,"(1,4]",AZ,AZ_NLA12NEW,17.375,"AZ_(1,4]",-1325207.654,-327957.8919,NA,NA,NA,NonTarget
NLA12_AZ-127,1,6281,5/23/2012,WMTNS,WMT,24.76589448,No,NLA12NEW,NLA12_BASE,Include,3.72925535,20695686,20695686,20695686,2072.07,Region_9,TargetSampleable,15,15010004,MAN_MADE,RESERVOIR,35.28501346,-112.1541634,Kaibab Lake,Kaibab Lake,3.780921415,1.50E+13,TargetSampleable,Target_Sampled,T,NA,PROB,"(20,50]",AZ,AZ_NLA12NEW,3.72925535,AZ_>4,-1449802.217,-124572.6661,NA,T,T,Target
NLA12_AZ-128,NA,NA,NA,WMTNS,XER,2.087395774,No,NLA12NEW,NLA12_BASE,Exclude,17.375,21321427,21321427,21321427,1523.88,Region_9,Nontarget-Ephemeral,15,15040005,NA,NA,33.21395147,-109.8332003,NA,NA,0.66845756,1.50E+13,Nontarget-Ephemeral,Non_Target,NA,NA,PROB,"(1,4]",AZ,AZ_NLA12NEW,17.375,"AZ_(1,4]",-1276680.365,-386528.6647,NA,NA,NA,NonTarget
NLA12_AZ-129,NA,NA,NA,WMTNS,WMT,21.67457958,No,NLA12NEW_07RVT,NLA12_RVT07,Include,9.996927936,20493257,20493257,20493257,2756.05,Region_9,Inaccessible-Effort,15,15060101,NATURAL,NATURAL,33.91647418,-109.435219,Basin Lake,Basin Lake,2.607011102,1.51E+13,Inaccessible-Effort,Target_Inacc,NA,NLA06608-0543,PROB,"(20,50]",AZ,AZ_NLA12NEW,9.996927936,AZ_>4,-1229142.682,-314114.6034,NA,NA,NA,Target_Presumed
NLA12_AZ-130,1,6195,5/10/2012,WMTNS,XER,622.6993198,No,NLA12NEW,NLA12_BASE,Include,4.533989399,20438850,20438850,20438850,533.25,Region_9,TargetSampleable,15,15060203,MAN_MADE,RESERVOIR,33.84530018,-111.6185016,Bartlett Reservoir,Bartlett Reservoir,48.18706487,1.51E+13,TargetSampleable,Target_Sampled,S,NLA06608-4627,PROB,>50,AZ,AZ_NLA12NEW,4.533989399,AZ_>4,-1428510.701,-291445.7813,NA,S,S,Target
NLA12_AZ-130,2,8198,8/22/2012,WMTNS,XER,622.6993198,No,NLA12NEW,NLA12_BASE,Include,4.533989399,20438850,20438850,20438850,533.25,Region_9,TargetSampleable,15,15060203,MAN_MADE,RESERVOIR,33.84530018,-111.6185016,Bartlett Reservoir,Bartlett Reservoir,48.18706487,1.51E+13,TargetSampleable,Target_Sampled,S,NLA06608-4627,PROB,>50,AZ,AZ_NLA12NEW,4.533989399,AZ_>4,-1428510.701,-291445.7813,NA,S,T,Target
NLA12_AZ-131,NA,NA,NA,WMTNS,XER,13.13167755,No,NLA12NEW,NLA12_BASE,Include,4.379421579,20415514,20415514,20415514,352.89,Region_9,AccessDenied,15,15070102,MAN_MADE,MAN_MADE,33.60760953,-112.2848192,Viewpoint Lake,Viewpoint Lake,2.821305293,1.51E+13,AccessDenied,Target_Denied,NA,NLA06608-3305,PROB,"(10,20]",AZ,AZ_NLA12NEW,4.379421579,AZ_>4,-1493396.733,-307383.7184,NA,NA,NA,Target_Presumed
NLA12_AZ-132,NA,NA,NA,WMTNS,XER,0.828665064,No,NLA12NEW,NLA12_BASE,Exclude,17.375,21327541,21327541,21327541,839.42,Region_9,Nontarget-Vegetated,15,15040005,NA,NA,32.984399,-109.9412408,Unnamed,NA,0.384157956,1.50E+13,Nontarget-Vegetated,Lake_Vegetated,NA,NA,PROB,"(1,4]",AZ,AZ_NLA12NEW,17.375,"AZ_(1,4]",-1290325.49,-410418.7658,NA,NA,NA,NonTarget
NLA12_AZ-133,NA,NA,NA,WMTNS,WMT,15.9863368,No,NLA12NEW,NLA12_BASE,Include,4.379421579,20487510,20487510,20487510,2508,Region_9,AccessDenied,15,15060102,MAN_MADE,MAN_MADE,33.91124585,-109.7317698,Christmas Tree Lake,Christmas Tree Lake,2.553597433,1.51E+13,AccessDenied,Target_Denied,NA,NLA06608-4587,PROB,"(10,20]",AZ,AZ_NLA12NEW,4.379421579,AZ_>4,-1256170.215,-310815.1823,NA,NA,NA,Target_Presumed
NLA12_AZ-134,NA,NA,NA,WMTNS,WMT,100.8612197,No,NLA12NEW,NLA12_BASE,Include,4.533989399,22437450,120052901,22437450,1946.09,Region_9,Inaccessible-Barrier/Safety,15,15020010,MAN_MADE,MAN_MADE,34.49721809,-110.8247241,Chevelon Canyon Lake,Chevelon Canyon Lake,11.67887594,1.50E+13,Inaccessible-Barrier/Safety,Target_Inacc,NA,NLA06608-4707,PROB,>50,AZ,AZ_NLA12NEW,4.533989399,AZ_>4,-1345193.796,-231089.4487,NA,NA,NA,Target_Presumed
NLA12_AZ-135,NA,NA,NA,WMTNS,XER,15.94101411,No,NLA12NEW,NLA12_BASE,Include,4.379421579,21436953,21436953,21436953,145.16,Region_9,Nontarget-Ephemeral,15,15030101,NA,NA,34.92945404,-114.6258019,Unnamed,NA,5.274967521,1.50E+13,Nontarget-Ephemeral,Non_Target,NA,NA,PROB,"(10,20]",AZ,AZ_NLA12NEW,4.379421579,AZ_>4,-1676718.823,-123038.0257,NA,NA,NA,NonTarget
NLA12_AZ-136,NA,NA,NA,WMTNS,XER,2.290843457,No,NLA12NEW,NLA12_BASE,Exclude,17.375,21376706,21376706,21376706,1429.05,Region_9,Nontarget-TooSmall,15,15080301,NA,NA,31.36317903,-109.870035,Unnamed,NA,0.6749657,1.51E+13,Nontarget-TooSmall,Lake_LT_1ha,NA,NA,PROB,"(1,4]",AZ,AZ_NLA12NEW,17.375,"AZ_(1,4]",-1310059.186,-590145.7714,NA,NA,NA,NonTarget
NLA12_AZ-137,NA,NA,NA,WMTNS,WMT,8.620146714,No,NLA12NEW,NLA12_BASE,Include,8.518404325,20493291,20493291,20493291,1913.83,Region_9,Nontarget-NoRecAquatUse,15,15060101,MAN_MADE,MAN_MADE,33.69413235,-109.8717562,Upper Corn Creek Tank,Upper Corn Creek Tank,1.334653993,1.51E+13,Nontarget-NoRecAquatUse,Lake_Special_Purpose,NA,NA,PROB,"(4,10]",AZ,AZ_NLA12NEW,8.518404325,AZ_>4,-1272413.754,-332955.4787,NA,NA,NA,NonTarget
NLA12_AZ-138,NA,NA,NA,WMTNS,XER,6.777923322,No,NLA12NEW,NLA12_BASE,Include,8.518404325,21744121,21744121,21744121,1447.04,Region_9,Nontarget-MapError,15,15020008,NA,NA,35.25973579,-110.8209165,NA,NA,1.18649677,1.50E+13,Nontarget-MapError,Not_Lake,NA,NA,PROB,"(4,10]",AZ,AZ_NLA12NEW,8.518404325,AZ_>4,-1331601.434,-146875.0604,NA,NA,NA,NonTarget
NLA12_AZ-139,NA,NA,NA,WMTNS,XER,2.725804415,No,NLA12NEW,NLA12_BASE,Exclude,17.375,22636856,22636856,22636856,60.82,Region_9,Inaccessible-Barrier/Safety,15,15030104,NATURAL,NATURAL,33.03287712,-114.6233405,Unnamed,NA,0.799102853,1.50E+13,Inaccessible-Barrier/Safety,Target_Inacc,NA,NA,PROB,"(1,4]",AZ,AZ_NLA12NEW,17.375,"AZ_(1,4]",-1717768.873,-330969.5811,NA,NA,NA,Target_Presumed
NLA12_AZ-140,1,7290,7/19/2012,WMTNS,XER,5.897283111,No,NLA12NEW,NLA12_BASE,Include,8.518404325,21327603,21327603,21327603,1006.44,Region_9,TargetSampleable,15,15040005,MAN_MADE,MAN_MADE,32.8056793,-109.8626777,Cluff Reservoir Number Three,Cluff Reservoir Number Three,1.093999706,1.50E+13,TargetSampleable,Target_Sampled,R,NA,PROB,"(4,10]",AZ,AZ_NLA12NEW,8.518404325,AZ_>4,-1286004.617,-431212.9491,R,R,R,Target
NLA12_AZ-141,NA,NA,NA,WMTNS,WMT,6.389481946,No,NLA12NEW,NLA12_BASE,Include,8.518404325,20493245,20493245,20493245,2828.49,Region_9,Nontarget-Ephemeral,15,15060101,NA,NA,33.95224152,-109.338336,Salt House Tank,Salt House Tank,1.099884179,1.51E+13,Nontarget-Ephemeral,Non_Target,NA,NA,PROB,"(4,10]",AZ,AZ_NLA12NEW,8.518404325,AZ_>4,-1219778.519,-311405.5297,NA,NA,NA,NonTarget
NLA12_AZ-142,NA,NA,NA,WMTNS,WMT,87.18323332,No,NLA12NEW,NLA12_BASE,Include,3.72925535,22443758,22443758,22443758,1018.85,Region_9,Nontarget-NoRecAquatUse,15,15060103,MAN_MADE,MAN_MADE,33.43731387,-110.8395428,NA,NA,6.67916123,1.51E+13,Nontarget-NoRecAquatUse,Lake_Special_Purpose,NA,NLA06608-4803,PROB,>50,AZ,AZ_NLA12NEW,3.72925535,AZ_>4,-1364948.002,-347885.0937,NA,NA,NA,NonTarget
NLA12_AZ-143,1,8320,8/30/2012,WMTNS,WMT,16.72327332,No,NLA12NEW,NLA12_BASE,Include,4.379421579,20449310,20449310,20449310,1997.64,Region_9,TargetSampleable,15,15060202,MAN_MADE,MAN_MADE,35.11670652,-112.0134231,White Horse Lake,White Horse Lake,2.795297277,1.51E+13,TargetSampleable,Target_Sampled,S,NA,PROB,"(10,20]",AZ,AZ_NLA12NEW,4.379421579,AZ_>4,-1440450.117,-145278.548,NA,S,S,Target
NLA12_AZ-144,NA,NA,NA,WMTNS,WMT,29.53782594,No,NLA12NEW,NLA12_BASE,Include,3.72925535,21321293,21321293,21321293,1836.61,Region_9,Nontarget-NoRecAquatUse,15,15040005,MAN_MADE,MAN_MADE,33.35639573,-109.675053,Salt Shed Tank,Salt Shed Tank,2.855796901,1.50E+13,Nontarget-NoRecAquatUse,Lake_Special_Purpose,NA,NA,PROB,"(20,50]",AZ,AZ_NLA12NEW,3.72925535,AZ_>4,-1259905.629,-372901.7129,NA,NA,NA,NonTarget
NLA12_AZ-145,1,8016,8/14/2012,WMTNS,WMT,48.4485317,No,NLA12NEW,NLA12_BASE,Include,3.72925535,21351551,21351551,21351551,2403.42,Region_9,TargetSampleable,15,15040004,MAN_MADE,RESERVOIR,33.8293043,-109.090421,Luna Lake,Luna Lake,5.384258583,1.50E+13,TargetSampleable,Target_Sampled,T,NLA06608-4744,PROB,"(20,50]",AZ,AZ_NLA12NEW,3.72925535,AZ_>4,-1199138.144,-328165.4046,NA,T,T,Target
NLA12_AZ-146,NA,NA,NA,WMTNS,XER,11.25086571,No,NLA12NEW,NLA12_BASE,Include,4.379421579,20438894,20438894,20438894,479.97,Region_9,Nontarget-NoRecAquatUse,15,15060203,MAN_MADE,MAN_MADE,33.60270971,-111.712105,NA,NA,1.582671445,1.51E+13,Nontarget-NoRecAquatUse,Lake_Special_Purpose,NA,NA,PROB,"(10,20]",AZ,AZ_NLA12NEW,4.379421579,AZ_>4,-1441454.423,-316766.7079,NA,NA,NA,NonTarget
NLA12_AZ-147,NA,NA,NA,WMTNS,XER,1.70906564,No,NLA12NEW,NLA12_BASE,Exclude,17.375,21269474,21269474,21269474,384.25,Region_9,Nontarget-NoRecAquatUse,15,15050100,MAN_MADE,MAN_MADE,33.34310919,-111.9769308,NA,NA,0.728314969,1.51E+13,Nontarget-NoRecAquatUse,Lake_Special_Purpose,NA,NA,PROB,"(1,4]",AZ,AZ_NLA12NEW,17.375,"AZ_(1,4]",-1470373.772,-341299.5805,NA,NA,NA,NonTarget
NLA12_AZ-148,NA,NA,NA,WMTNS,XER,2.65794742,No,NLA12NEW,NLA12_BASE,Exclude,17.375,15905815,15905815,15905815,856.08,Region_9,Nontarget-NoRecAquatUse,15,15050301,MAN_MADE,MAN_MADE,31.88378415,-110.9780552,NA,NA,0.912439376,1.51E+13,Nontarget-NoRecAquatUse,Lake_Special_Purpose,NA,NA,PROB,"(1,4]",AZ,AZ_NLA12NEW,17.375,"AZ_(1,4]",-1404780.868,-517019.3643,NA,NA,NA,NonTarget
NLA12_AZ-149,NA,NA,NA,WMTNS,WMT,5.706204515,No,NLA12NEW,NLA12_BASE,Include,8.518404325,21321263,21321263,21321263,1822.92,Region_9,Nontarget-NoRecAquatUse,15,15040005,MAN_MADE,MAN_MADE,33.41995911,-109.7097961,Steer Pasture Tank,Steer Pasture Tank,1.070138253,1.50E+13,Nontarget-NoRecAquatUse,Lake_Special_Purpose,NA,NA,PROB,"(4,10]",AZ,AZ_NLA12NEW,8.518404325,AZ_>4,-1262063.944,-365416.3871,NA,NA,NA,NonTarget
NLA12_AZ-150,NA,NA,NA,WMTNS,WMT,11.35043923,No,NLA12NEW,NLA12_BASE,Include,4.379421579,21745257,21745257,21745257,2066.85,Region_9,Inaccessible-Barrier/Safety,15,15020008,MAN_MADE,MAN_MADE,34.79685877,-111.2335439,Soldier Lake,Soldier Lake,1.388899171,1.50E+13,Inaccessible-Barrier/Safety,Target_Inacc,NA,NA,PROB,"(10,20]",AZ,AZ_NLA12NEW,4.379421579,AZ_>4,-1376627.042,-192140.1589,NA,NA,NA,Target_Presumed
NLA12_AZ-151,NA,NA,NA,WMTNS,XER,2.598098251,No,NLA12NEW,NLA12_BASE,Exclude,17.375,21411473,21411473,21411473,55.13,Region_9,Nontarget-NotLake,15,15030107,MAN_MADE,MAN_MADE,32.79576558,-114.4960724,Gila Gravity Main Canal,NA,0.773396458,1.50E+13,Nontarget-NotLake,Not_Lake,NA,NA,PROB,"(1,4]",AZ,AZ_NLA12NEW,17.375,"AZ_(1,4]",-1711296.232,-359221.3489,NA,NA,NA,NonTarget
NLA12_AZ-152,NA,NA,NA,WMTNS,XER,1.732561604,No,NLA12NEW,NLA12_BASE,Exclude,17.375,1405967,1405967,1405967,1921.31,Region_9,Nontarget-NoRecAquatUse,14,14080204,MAN_MADE,MAN_MADE,36.61599025,-110.4806243,NA,NA,0.846435822,1.41E+13,Nontarget-NoRecAquatUse,Lake_Special_Purpose,NA,NA,PROB,"(1,4]",AZ,AZ_NLA12NEW,17.375,"AZ_(1,4]",-1278216.104,-1481.462999,NA,NA,NA,NonTarget
NLA12_AZ-153,NA,NA,NA,WMTNS,WMT,13.98189069,No,NLA12NEW,NLA12_BASE,Include,4.379421579,21761698,21761698,21761698,2055.19,Region_9,Inaccessible-Barrier/Safety,15,15020002,MAN_MADE,MAN_MADE,34.27396535,-109.6766716,Unnamed,NA,1.6469452,1.50E+13,Inaccessible-Barrier/Safety,Target_Inacc,NA,NA,PROB,"(10,20]",AZ,AZ_NLA12NEW,4.379421579,AZ_>4,-1245350.395,-271419.598,NA,NA,NA,Target_Presumed
NLA12_AZ-154,NA,NA,NA,WMTNS,WMT,8.328733734,No,NLA12NEW,NLA12_BASE,Include,8.518404325,20524689,20524689,20524689,2200.23,Region_9,Nontarget-Ephemeral,15,15020015,NATURAL,NATURAL,35.0984601,-111.530892,Prime Lake,Prime Lake,1.206721338,1.50E+13,Nontarget-Ephemeral,Non_Target,NA,NA,PROB,"(4,10]",AZ,AZ_NLA12NEW,8.518404325,AZ_>4,-1397770.542,-154497.7776,NA,NA,NA,NonTarget
NLA12_AZ-155,NA,NA,NA,WMTNS,XER,36.07651429,Yes,NLA12NEW,NLA12_BASE,Include,3.72925535,9998886,9998886,9998886,78.38,Region_9,Nontarget-NotLake,15,15030104,NA,NA,33.57273344,-114.5342156,NA,NA,11.03734516,1.50E+13,Nontarget-NotLake,Not_Lake,NA,NA,PROB,"(20,50]",AZ,AZ_NLA12NEW,3.72925535,AZ_>4,-1697971.784,-273443.4303,NA,NA,NA,NonTarget
NLA12_AZ-156,NA,NA,NA,WMTNS,XER,9.725244352,No,NLA12NEW,NLA12_BASE,Include,8.518404325,21327609,21327609,21327609,913,Region_9,Nontarget-Ephemeral,15,15040005,UNCERTAIN,UNCERTAIN,32.78969299,-109.6890611,Unnamed,NA,1.419938214,1.50E+13,Nontarget-Ephemeral,Non_Target,NA,NA,PROB,"(4,10]",AZ,AZ_NLA12NEW,8.518404325,AZ_>4,-1270266.941,-435312.8225,NA,NA,NA,NonTarget
NLA12_AZ-157,1,8251,8/17/2012,WMTNS,WMT,17.28230542,No,NLA12NEW,NLA12_BASE,Include,4.379421579,20584554,20584554,20584554,2519.09,Region_9,TargetSampleable,15,15020001,MAN_MADE,MAN_MADE,34.03125525,-109.4431103,Tunnel Reservoir,Tunnel Reservoir,1.614787909,1.50E+13,TargetSampleable,Target_Sampled,T,NA,PROB,"(10,20]",AZ,AZ_NLA12NEW,4.379421579,AZ_>4,-1228051.344,-301313.3346,NA,T,T,Target
NLA12_AZ-R01,1,8183,8/22/2012,WMTNS,WMT,24.13835303,No,NA,NA,NA,NA,21747615,21747615,21747615,2220,Region_9,TargetSampleable,15,15020008,MAN_MADE,MAN_MADE,34.42742317,-111.0867324,KNOLL LAKE,Knoll Lake,5.230721276,1.50E+13,TargetSampleable,Target_Sampled,S,NLA06608-2217,HAND,NA,AZ,NA,NA,NA,-1370003.879,-235054.6013,R,S,S,Target
NLA12_AZ-R02,1,8153,8/21/2012,WMTNS,WMT,5.148899319,No,NA,NA,NA,NA,21755810,21755810,21755810,2041.82,Region_9,TargetSampleable,15,15020005,MAN_MADE,MAN_MADE,34.16108989,-109.9796571,LAKE OF THE WOODS,Lake of the Woods,0.908339408,1.50E+13,TargetSampleable,Target_Sampled,S,NA,HAND,NA,AZ,NA,NA,NA,-1274591.582,-279887.3815,NA,S,S,Target
NLA12_CA-101,1,7020,7/9/2012,WMTNS,XER,335.3416647,No,NLA07RVT,NLA07_RVT12,Include,19.19379315,5329251,5329251,5329251,51.12,Region_9,TargetSampleable,18,18050005,MAN_MADE,RESERVOIR,38.07832575,-122.7433592,Nicasio Reservoir,Nicasio Reservoir,32.51425567,1.81E+13,TargetSampleable,Target_Sampled,S,NLA06608-1781,PROB,>50,CA,CA_NLA07RVT,19.19379315,CA_>4,-2293153.367,389622.7836,NA,S,S,Target
NLA12_CA-101,2,8759,9/24/2012,WMTNS,XER,335.3416647,No,NLA07RVT,NLA07_RVT12,Include,19.19379315,5329251,5329251,5329251,51.12,Region_9,TargetSampleable,18,18050005,MAN_MADE,RESERVOIR,38.07832575,-122.7433592,Nicasio Reservoir,Nicasio Reservoir,32.51425567,1.81E+13,TargetSampleable,Target_Sampled,S,NLA06608-1781,PROB,>50,CA,CA_NLA07RVT,19.19379315,CA_>4,-2293153.367,389622.7836,NA,S,S,Target
NLA12_CA-102,1,8264,8/28/2012,WMTNS,WMT,731.021414,No,NLA07RVT,NLA07_RVT12,Include,19.19379315,20342929,20342929,20342929,818.28,Region_9,TargetSampleable,18,18070303,MAN_MADE,RESERVOIR,33.23504244,-116.7444419,Lake Henshaw,Lake Henshaw,20.2000769,1.81E+13,TargetSampleable,Target_Sampled,T,NLA06608-1397,PROB,>50,CA,CA_NLA07RVT,19.19379315,CA_>4,-1905572.072,-268446.5224,NA,T,T,Target
NLA12_CA-103,1,7916,8/13/2012,WMTNS,WMT,574.7253533,No,NLA07RVT,NLA07_RVT12,Include,158.1456211,14991593,14991593,14991593,1592.46,Region_9,TargetSampleable,18,18020128,MAN_MADE,RESERVOIR,39.11326334,-120.4389061,French Meadows Reservoir,French Meadows Reservoir,14.56207055,1.80E+13,TargetSampleable,Target_Sampled,S,NLA06608-0201,PROB,>50,CA,CA_NLA07RVT,158.1456211,CA_>4,-2070639.438,448540.246,NA,S,S,Target
NLA12_CA-104,1,8483,9/11/2012,WMTNS,WMT,118.8169149,No,NLA07RVT,NLA07_RVT12,Include,94.29961191,20287024,20287024,20287024,2323.16,Region_9,TargetSampleable,18,18090101,NATURAL,NATURAL,37.78873902,-119.0738863,June Lake,June Lake,4.627384423,1.81E+13,TargetSampleable,Target_Sampled,S,NLA06608-0181,PROB,>50,CA,CA_NLA07RVT,94.29961191,CA_>4,-1993028.56,275507.7375,NA,S,S,Target
NLA12_CA-105,1,7126,7/11/2012,WMTNS,XER,21.36925395,No,NLA07RVT,NLA07_RVT12,Include,231.9268344,15033533,15033533,15033533,3.21,Region_9,TargetSampleable,18,18020109,MAN_MADE,MAN_MADE,38.50847142,-121.5353649,Lake Greenhaven,Lake Greenhaven,3.719279733,1.80E+13,TargetSampleable,Target_Sampled,T,NLA06608-1269,PROB,"(20,50]",CA,CA_NLA07RVT,231.9268344,CA_>4,-2179338.637,407598.6896,NA,T,T,Target
NLA12_CA-106,1,6250,5/22/2012,WMTNS,XER,62.78533719,No,NLA07RVT,NLA07_RVT12,Include,231.9268344,22597891,22597891,22597891,-53.27,Region_9,TargetSampleable,18,18100200,MAN_MADE,MAN_MADE,33.07900474,-115.512784,Ramer Lake,Ramer Lake,3.204951638,1.81E+13,TargetSampleable,Target_Sampled,T,NLA06608-0173,PROB,>50,CA,CA_NLA07RVT,231.9268344,CA_>4,-1797629.851,-309473.4971,NA,T,T,Target
NLA12_CA-107,1,8466,9/10/2012,WMTNS,WMT,70.01844691,No,NLA07RVT,NLA07_RVT12,Include,92.32876681,345449,120051897,345449,2227.25,Region_9,TargetSampleable,18,18040010,MAN_MADE,MAN_MADE,38.47629345,-119.9996916,Lake Alpine,Lake Alpine,5.032435184,1.80E+13,TargetSampleable,Target_Sampled,S,NLA06608-0649,PROB,>50,CA,CA_NLA07RVT,92.32876681,CA_>4,-2052066.966,369924.5545,NA,S,S,Target
NLA12_CA-108,1,7796,8/8/2012,WMTNS,XER,69.77191048,No,NLA07RVT,NLA07_RVT12,Include,85.63973104,17114573,17114573,17114573,300.34,Region_9,TargetSampleable,18,18040006,MAN_MADE,MAN_MADE,37.14922318,-119.5111573,Kerckhoff Lake,Kerckhoff Lake,9.869399505,1.80E+13,TargetSampleable,Target_Sampled,R,NLA06608-0693,PROB,>50,CA,CA_NLA07RVT,85.63973104,CA_>4,-2047582.569,215275.9638,R,R,R,Target
NLA12_CA-109,NA,NA,NA,WMTNS,XER,2.148125223,No,NLA12NEW,NLA12_BASE,Exclude,89.29411765,8273047,8273047,8273047,25.07,Region_9,Nontarget-NoRecAquatUse,18,18010110,NA,NA,38.39202277,-122.7824245,Unnamed,NA,0.600751355,1.80E+13,Nontarget-NoRecAquatUse,Lake_Special_Purpose,NA,NA,PROB,"(1,4]",CA,CA_NLA12NEW,89.29411765,"CA_(1,4]",-2286635.542,424339.9078,NA,NA,NA,NonTarget
NLA12_CA-110,NA,NA,NA,WMTNS,WMT,6.713864315,No,NLA12NEW,NLA12_BASE,Include,32.21992063,22057309,22057309,22057309,3180.82,Region_9,Inaccessible-Barrier/Safety,18,18030010,NATURAL,NATURAL,36.99547226,-118.7179602,Unnamed,NA,1.165639641,1.80E+13,Inaccessible-Barrier/Safety,Target_Inacc,NA,NA,PROB,"(4,10]",CA,CA_NLA12NEW,32.21992063,CA_>4,-1983927.119,181730.0825,NA,NA,NA,Target_Presumed
NLA12_CA-111,1,7341,7/19/2012,WMTNS,XER,146.5493939,No,NLA12NEW,NLA12_BASE,Include,20.86922853,15012301,15012301,15012301,488.8,Region_9,TargetSampleable,18,18020126,MAN_MADE,MAN_MADE,39.013583,-121.0410833,Lake Combie,Lake Combie,14.4411696,1.80E+13,TargetSampleable,Target_Sampled,S,NA,PROB,>50,CA,CA_NLA12NEW,20.86922853,CA_>4,-2123398.544,451032.1514,NA,S,S,Target
NLA12_CA-111,2,7937,8/14/2012,WMTNS,XER,146.5493939,No,NLA12NEW,NLA12_BASE,Include,20.86922853,15012301,15012301,15012301,488.8,Region_9,TargetSampleable,18,18020126,MAN_MADE,MAN_MADE,39.013583,-121.0410833,Lake Combie,Lake Combie,14.4411696,1.80E+13,TargetSampleable,Target_Sampled,S,NA,PROB,>50,CA,CA_NLA12NEW,20.86922853,CA_>4,-2123398.544,451032.1514,NA,S,S,Target
NLA12_CA-112,1,7424,7/25/2012,WMTNS,XER,21.60541441,No,NLA12NEW,NLA12_BASE,Include,13.63456264,8060117,8060117,8060117,425.25,Region_9,TargetSampleable,18,18020125,MAN_MADE,MAN_MADE,39.37366934,-121.2786137,Lake Mildred,Lake Mildred,3.383860377,1.80E+13,TargetSampleable,Target_Sampled,R,NA,PROB,"(20,50]",CA,CA_NLA12NEW,13.63456264,CA_>4,-2132456.406,495302.4571,R,R,R,Target
NLA12_CA-113,NA,NA,NA,WMTNS,XER,4.96285778,No,NLA12NEW,NLA12_BASE,Include,32.21992063,21606711,21606711,21606711,45.75,Region_9,Nontarget-Ephemeral,18,18040002,NA,NA,37.58201372,-120.7499359,Unnamed,NA,1.107199123,1.80E+13,Nontarget-Ephemeral,Non_Target,NA,NA,PROB,"(4,10]",CA,CA_NLA12NEW,32.21992063,CA_>4,-2140591.57,289519.7294,NA,NA,NA,NonTarget
NLA12_CA-114,NA,NA,NA,WMTNS,WMT,2.398230943,No,NLA12NEW,NLA12_BASE,Exclude,89.29411765,17117623,17117623,17117623,3642.97,Region_9,Inaccessible-Barrier/Safety,18,18040006,NATURAL,NATURAL,37.11653984,-118.7280171,Unnamed,NA,0.605147525,1.80E+13,Inaccessible-Barrier/Safety,Target_Inacc,NA,NA,PROB,"(1,4]",CA,CA_NLA12NEW,89.29411765,"CA_(1,4]",-1981575.025,195119.7971,NA,NA,NA,Target_Presumed
NLA12_CA-115,NA,NA,NA,WMTNS,XER,11.71025568,No,NLA12NEW,NLA12_BASE,Include,17.23202013,1668831,1668831,1668831,0,Region_9,Nontarget-NoRecAquatUse,18,18050002,NA,NA,38.09268863,-122.2406498,Lake Dalwigk,Lake Dalwigk,1.396069591,1.81E+13,Nontarget-NoRecAquatUse,Lake_Special_Purpose,NA,NA,PROB,"(10,20]",CA,CA_NLA12NEW,17.23202013,CA_>4,-2250720.874,379152.3018,NA,NA,NA,NonTarget
NLA12_CA-116,1,6559,6/12/2012,WMTNS,WMT,19.58614266,No,NLA12NEW,NLA12_BASE,Include,17.23202013,7964717,7964717,7964717,1658,Region_9,TargetSampleable,18,18020005,NATURAL,NATURAL,41.22806098,-122.3816476,Castle Lake,Castle Lake,1.855488603,1.80E+13,TargetSampleable,Target_Sampled,S,NA,PROB,"(10,20]",CA,CA_NLA12NEW,17.23202013,CA_>4,-2166225.251,720362.0008,R,S,S,Target
NLA12_CA-117,NA,NA,NA,WMTNS,XER,2.835723157,No,NLA12NEW,NLA12_BASE,Exclude,89.29411765,17160886,17160886,17160886,63.31,Region_9,Nontarget-MapError,18,18030012,NA,NA,35.92391255,-119.4564833,NA,NA,0.690590787,1.80E+13,Nontarget-MapError,Not_Lake,NA,NA,PROB,"(1,4]",CA,CA_NLA12NEW,89.29411765,"CA_(1,4]",-2076454.277,80999.47824,NA,NA,NA,NonTarget
NLA12_CA-118,NA,NA,NA,WMTNS,WMT,2.4493061,No,NLA12NEW,NLA12_BASE,Exclude,89.29411765,20273057,20273057,20273057,2650.02,Region_9,Inaccessible-Effort,18,18090102,NATURAL,NATURAL,37.6085052,-118.9426391,Sherwin Lakes (north lake),NA,0.674680548,1.81E+13,Inaccessible-Effort,Target_Inacc,NA,NA,PROB,"(1,4]",CA,CA_NLA12NEW,89.29411765,"CA_(1,4]",-1986743.072,253148.8207,NA,NA,NA,Target_Presumed
NLA12_CA-119,1,7740,8/7/2012,WMTNS,XER,4470.73541,No,NLA12NEW,NLA12_BASE,Include,20.86922853,20197002,120051899,20197002,332.34,Region_9,TargetSampleable,18,18040010,MAN_MADE,MAN_MADE,37.95383641,-120.4968436,New Melones Lake,New Melones Lake,205.1316367,1.80E+13,TargetSampleable,Target_Sampled,S,NA,PROB,>50,CA,CA_NLA12NEW,20.86922853,CA_>4,-2108567.971,324143.5426,R,S,S,Target
NLA12_CA-120,NA,NA,NA,WMTNS,WMT,605.0198111,No,NLA12NEW,NLA12_BASE,Include,20.86922853,NA,8265232,NA,1244.5,Region_9,Nontarget-Other,18,18010204,NA,NA,41.92485076,-121.6651735,NA,NA,10.10275902,1.80E+13,Nontarget-Other,Non_Target,NA,NA,PROB,>50,CA,CA_NLA12NEW,20.86922853,CA_>4,-2088048.126,779400.3848,NA,NA,NA,NonTarget
NLA12_CA-121,1,6659,6/19/2012,WMTNS,XER,1005.9283,No,NLA12NEW,NLA12_BASE,Include,20.86922853,14930103,14930103,14930103,199.55,Region_9,TargetSampleable,18,18030006,MAN_MADE,MAN_MADE,36.08284307,-118.9092314,Lake Success,Lake Success,42.22641737,1.80E+13,TargetSampleable,Target_Sampled,T,NA,PROB,>50,CA,CA_NLA12NEW,20.86922853,CA_>4,-2024714.22,86461.75954,NA,T,T,Target
NLA12_CA-122,NA,NA,NA,WMTNS,WMT,2.118525879,No,NLA12NEW,NLA12_BASE,Exclude,89.29411765,8062989,8062989,8062989,2128.43,Region_9,Inaccessible-Effort,18,18020125,NATURAL,NATURAL,39.40910079,-120.5572128,Unnamed,NA,0.676502872,1.80E+13,Inaccessible-Effort,Target_Inacc,NA,NA,PROB,"(1,4]",CA,CA_NLA12NEW,89.29411765,"CA_(1,4]",-2071966.886,483179.61,NA,NA,NA,Target_Presumed
NLA12_CA-123,1,7989,8/15/2012,WMTNS,WMT,10.42702163,No,NLA12NEW,NLA12_BASE,Include,17.23202013,8921715,8921715,8921715,2445.3,Region_9,TargetSampleable,16,16050201,MAN_MADE,MAN_MADE,38.76397086,-119.9656214,Scotts Lake,Scotts Lake,1.381916533,1.61E+13,TargetSampleable,Target_Sampled,S,NA,PROB,"(10,20]",CA,CA_NLA12NEW,17.23202013,CA_>4,-2041170.285,400414.218,NA,S,S,Target
NLA12_CA-124,NA,NA,NA,WMTNS,XER,17.2077507,No,NLA12NEW,NLA12_BASE,Include,17.23202013,20330952,20330952,20330952,2.69,Region_9,Nontarget-Coastal Saline,18,18070304,NA,NA,32.97161107,-117.2640908,NA,NA,5.883836905,1.81E+13,Nontarget-Coastal Saline,Lake_Saline,NA,NA,PROB,"(10,20]",CA,CA_NLA12NEW,17.23202013,CA_>4,-1959041.917,-286569.3833,NA,NA,NA,NonTarget
NLA12_CA-125,NA,NA,NA,WMTNS,XER,1.688147377,No,NLA12NEW,NLA12_BASE,Exclude,89.29411765,8271589,8271589,8271589,131.33,Region_9,Nontarget-Ephemeral,18,18010110,NA,NA,38.69775682,-122.8175849,Unnamed,NA,0.540051004,1.80E+13,Nontarget-Ephemeral,Non_Target,NA,NA,PROB,"(1,4]",CA,CA_NLA12NEW,89.29411765,"CA_(1,4]",-2280014.906,458099.737,NA,NA,NA,NonTarget
NLA12_CA-126,NA,NA,NA,WMTNS,WMT,11.83269068,No,NLA12NEW,NLA12_BASE,Include,17.23202013,20275637,20275637,20275637,3279.27,Region_9,Inaccessible-Effort,18,18090102,NATURAL,NATURAL,37.14453314,-118.5565952,Long Lake,Long Lake,2.36554277,1.81E+13,Inaccessible-Effort,Target_Inacc,NA,NA,PROB,"(10,20]",CA,CA_NLA12NEW,17.23202013,CA_>4,-1966174.616,194607.4851,NA,NA,NA,Target_Presumed
NLA12_CA-127,NA,NA,NA,WMTNS,XER,3.355728389,No,NLA12NEW,NLA12_BASE,Exclude,89.29411765,15033497,15033497,15033497,14.36,Region_9,Nontarget-NotLake,18,18020109,MAN_MADE,MAN_MADE,38.54496637,-121.4016263,NA,NA,0.753708122,1.80E+13,Nontarget-NotLake,Not_Lake,NA,NA,PROB,"(1,4]",CA,CA_NLA12NEW,89.29411765,"CA_(1,4]",-2167118.057,408484.9248,NA,NA,NA,NonTarget
NLA12_CA-128,1,7563,7/31/2012,WMTNS,WMT,1.033384661,No,NLA12NEW,NLA12_BASE,Exclude,89.29411765,8297113,8297113,8297113,1811.55,Region_9,TargetSampleable,18,18010104,NATURAL,NATURAL,39.72615676,-122.8416693,Plaskett Meadows Lake,NA,0.418172977,1.80E+13,TargetSampleable,Target_Sampled,S,NA,PROB,"(1,4]",CA,CA_NLA12NEW,89.29411765,"CA_(1,4]",-2249884.563,569370.0045,NA,S,S,Target
NLA12_CA-129,NA,NA,NA,WMTNS,XER,1.528439627,No,NLA12NEW,NLA12_BASE,Exclude,89.29411765,24714732,24714732,24714732,221.7,Region_9,Nontarget-TooSmall,18,18040014,NA,NA,36.91239065,-121.0007868,Unnamed,NA,0.536483447,1.80E+13,Nontarget-TooSmall,Lake_LT_1ha,NA,NA,PROB,"(1,4]",CA,CA_NLA12NEW,89.29411765,"CA_(1,4]",-2181300.733,222741.8864,NA,NA,NA,NonTarget
NLA12_CA-130,NA,NA,NA,WMTNS,WMT,3.777654583,No,NLA12NEW,NLA12_BASE,Exclude,89.29411765,17080679,17080679,17080679,1533.36,Region_9,AccessDenied,18,18040009,NATURAL,NATURAL,37.95246916,-119.8398926,Unnamed,NA,0.791026657,1.80E+13,AccessDenied,Target_Denied,NA,NA,PROB,"(1,4]",CA,CA_NLA12NEW,89.29411765,"CA_(1,4]",-2053266.985,309610.0839,NA,NA,NA,Target_Presumed
NLA12_CA-131,NA,NA,NA,WMTNS,XER,25.34824874,No,NLA12NEW,NLA12_BASE,Include,13.63456264,2786529,2786529,2786529,1.06,Region_9,Nontarget-NoRecAquatUse,18,18050001,MAN_MADE,MAN_MADE,38.03968677,-121.9482729,NA,NA,2.14395772,1.81E+13,Nontarget-NoRecAquatUse,Lake_Special_Purpose,NA,NA,PROB,"(20,50]",CA,CA_NLA12NEW,13.63456264,CA_>4,-2227874.998,366544.8219,NA,NA,NA,NonTarget
NLA12_CA-132,1,6596,6/13/2012,WMTNS,WMT,36.17217915,No,NLA12NEW,NLA12_BASE,Include,13.63456264,2797909,2797909,2797909,613.92,Region_9,TargetSampleable,18,18020113,MAN_MADE,MAN_MADE,40.50757762,-122.6943291,Rainbow Lake,Rainbow Lake,4.202623881,1.80E+13,TargetSampleable,Target_Sampled,S,NA,PROB,"(20,50]",CA,CA_NLA12NEW,13.63456264,CA_>4,-2213591.772,650009.482,NA,S,S,Target
NLA12_CA-133,NA,NA,NA,WMTNS,WMT,3.148519861,No,NLA12NEW,NLA12_BASE,Exclude,89.29411765,22057869,22057869,22057869,2996.64,Region_9,Inaccessible-Barrier/Safety,18,18030007,NATURAL,NATURAL,36.55421116,-118.5647436,Unnamed,NA,0.742767562,1.80E+13,Inaccessible-Barrier/Safety,Target_Inacc,NA,NA,PROB,"(1,4]",CA,CA_NLA12NEW,89.29411765,"CA_(1,4]",-1982428.675,130491.7289,NA,NA,NA,Target_Presumed
NLA12_CA-134,NA,NA,NA,WMTNS,WMT,16.35524232,No,NLA12NEW,NLA12_BASE,Include,17.23202013,21609103,21609103,21609103,3094.62,Region_9,Inaccessible-Barrier/Safety,18,18040008,NATURAL,NATURAL,37.64346558,-119.3824594,Edna Lake,Edna Lake,1.874731571,1.80E+13,Inaccessible-Barrier/Safety,Target_Inacc,NA,NA,PROB,"(10,20]",CA,CA_NLA12NEW,17.23202013,CA_>4,-2023111.224,266230.1349,NA,NA,NA,Target_Presumed
NLA12_CA-135,1,7988,8/15/2012,WMTNS,WMT,245.7747884,No,NLA12NEW,NLA12_BASE,Include,20.86922853,14981180,14981180,14981180,2378.19,Region_9,TargetSampleable,18,18020129,MAN_MADE,MAN_MADE,38.69849847,-120.0450767,Caples Lake,Twin Lakes Reservoir,9.830316262,1.80E+13,TargetSampleable,Target_Sampled,S,NA,PROB,>50,CA,CA_NLA12NEW,20.86922853,CA_>4,-2049629.798,395018.6894,NA,S,S,Target
NLA12_CA-136,NA,NA,NA,WMTNS,XER,58.25070359,No,NLA12NEW,NLA12_BASE,Include,20.86922853,22677680,22677680,22677680,924.39,Region_9,Nontarget-NoRecAquatUse,18,18090206,MAN_MADE,MAN_MADE,34.70582108,-118.4363027,Fairmont Reservoir,Fairmont Reservoir,3.14731755,1.81E+13,Nontarget-NoRecAquatUse,Lake_Special_Purpose,NA,NA,PROB,>50,CA,CA_NLA12NEW,20.86922853,CA_>4,-2019754.538,-73360.18437,NA,NA,NA,NonTarget
NLA12_CA-137,NA,NA,NA,WMTNS,WMT,6.889476289,No,NLA12NEW,NLA12_BASE,Include,32.21992063,22047591,22047591,22047591,2813.03,Region_9,Inaccessible-Effort,18,18030010,NATURAL,NATURAL,37.15682803,-119.0762205,Swede Lake,Swede Lake,0.97805086,1.80E+13,Inaccessible-Effort,Target_Inacc,NA,NA,PROB,"(4,10]",CA,CA_NLA12NEW,32.21992063,CA_>4,-2010253.76,206816.9351,NA,NA,NA,Target_Presumed
NLA12_CA-138,1,8424,9/6/2012,WMTNS,WMT,8.907100118,No,NLA12NEW,NLA12_BASE,Include,32.21992063,20291151,20291151,20291151,1976.21,Region_9,TargetSampleable,18,18080003,NATURAL,NATURAL,40.51311798,-121.1651745,Pine Lake,Pine Lake,1.336509,1.81E+13,TargetSampleable,Target_Sampled,R,NA,PROB,"(4,10]",CA,CA_NLA12NEW,32.21992063,CA_>4,-2089697.685,615984.8383,R,R,R,Target
NLA12_CA-139,NA,NA,NA,WMTNS,WMT,13.13815535,No,NLA12NEW,NLA12_BASE,Include,17.23202013,8943273,8943273,8943273,2407.32,Region_9,Inaccessible-Barrier/Safety,16,16050101,NATURAL,NATURAL,38.87731661,-120.1377147,Heather Lake,Heather Lake,2.067492444,1.61E+13,Inaccessible-Barrier/Safety,Target_Inacc,NA,NA,PROB,"(10,20]",CA,CA_NLA12NEW,17.23202013,CA_>4,-2052319.979,416420.2622,NA,NA,NA,Target_Presumed
NLA12_CA-140,NA,NA,NA,WMTNS,XER,1.004571342,No,NLA12NEW,NLA12_BASE,Exclude,89.29411765,10004108,10004108,10004108,59.67,Region_9,Nontarget-TooSmall,15,15030104,NATURAL,NATURAL,32.95613986,-114.4788688,Unnamed,NA,0.421634763,1.50E+13,Nontarget-TooSmall,Lake_LT_1ha,NA,NA,PROB,"(1,4]",CA,CA_NLA12NEW,89.29411765,"CA_(1,4]",-1706266.976,-341973.5486,NA,NA,NA,NonTarget
NLA12_CA-141,1,8148,8/22/2012,WMTNS,XER,1.613422335,No,NLA12NEW,NLA12_BASE,Exclude,89.29411765,8005415,8005415,8005415,455.8,Region_9,TargetSampleable,18,18020116,MAN_MADE,MAN_MADE,39.09599481,-122.9319835,Unnamed,NA,0.551743677,1.80E+13,TargetSampleable,Target_Sampled,S,NA,PROB,"(1,4]",CA,CA_NLA12NEW,89.29411765,"CA_(1,4]",-2276998.804,503705.5915,NA,S,S,Target
NLA12_CA-142,NA,NA,NA,WMTNS,WMT,7.608530025,No,NLA12NEW,NLA12_BASE,Include,32.21992063,17116951,17116951,17116951,3520.17,Region_9,Inaccessible-Effort,18,18040006,NATURAL,NATURAL,37.34985049,-118.795801,Jumble Lake,Jumble Lake,1.35784513,1.80E+13,Inaccessible-Effort,Target_Inacc,NA,NA,PROB,"(4,10]",CA,CA_NLA12NEW,32.21992063,CA_>4,-1981159.826,221931.4181,NA,NA,NA,Target_Presumed
NLA12_CA-143,1,6160,5/2/2012,WMTNS,XER,2.481529197,No,NLA12NEW,NLA12_BASE,Exclude,89.29411765,2806117,2806117,2806117,13.06,Region_9,TargetSampleable,18,18050004,MAN_MADE,MAN_MADE,37.56448938,-121.9971818,Unnamed,NA,0.832914483,1.81E+13,TargetSampleable,Target_Sampled,S,NA,PROB,"(1,4]",CA,CA_NLA12NEW,89.29411765,"CA_(1,4]",-2246357.58,316413.5526,NA,S,S,Target
NLA12_CA-144,NA,NA,NA,WMTNS,XER,89.87355692,No,NLA12NEW,NLA12_BASE,Include,20.86922853,22671066,22671066,22671066,493.37,Region_9,Nontarget-Ephemeral,18,18090205,NA,NA,35.74960883,-117.3645185,Searles Lake,NA,8.405610197,NA,Nontarget-Ephemeral,Non_Target,NA,NA,PROB,>50,CA,CA_NLA12NEW,20.86922853,CA_>4,-1898904.167,18265.32717,NA,NA,NA,NonTarget
NLA12_CA-145,1,7529,7/30/2012,WMTNS,XER,4.667632946,No,NLA12NEW,NLA12_BASE,Include,32.21992063,17693779,17693779,17693779,55.78,Region_9,TargetSampleable,18,18050003,MAN_MADE,MAN_MADE,37.24681552,-121.8722039,Los Alamitos Percolation Ponds,Los Alamitos Percolation Ponds,0.843198756,1.81E+13,TargetSampleable,Target_Sampled,T,NA,PROB,"(4,10]",CA,CA_NLA12NEW,32.21992063,CA_>4,-2245400.08,279176.8668,NA,T,T,Target
NLA12_CA-146,NA,NA,NA,WMTNS,WMT,10.19880039,No,NLA12NEW,NLA12_BASE,Include,17.23202013,17076009,17076009,17076009,3250.72,Region_9,Inaccessible-Barrier/Safety,18,18040009,NATURAL,NATURAL,38.04725562,-119.370619,Spiller Lake,Spiller Lake,1.307218613,1.80E+13,Inaccessible-Barrier/Safety,Target_Inacc,NA,NA,PROB,"(10,20]",CA,CA_NLA12NEW,17.23202013,CA_>4,-2011089.827,309873.0661,NA,NA,NA,Target_Presumed
NLA12_CA-147,NA,NA,NA,WMTNS,XER,3.924182845,No,NLA12NEW,NLA12_BASE,Exclude,89.29411765,15039967,15039967,15039967,3.7,Region_9,Nontarget-NotLake,18,18020109,NA,NA,38.36979919,-121.4692328,NA,NA,1.095645288,1.80E+13,Nontarget-NotLake,Not_Lake,NA,NA,PROB,"(1,4]",CA,CA_NLA12NEW,89.29411765,"CA_(1,4]",-2177946.47,391095.5953,NA,NA,NA,NonTarget
NLA12_CA-148,NA,NA,NA,WMTNS,WMT,11.53545,No,NLA12NEW,NLA12_BASE,Include,17.23202013,7927081,7927081,7927081,1770.61,Region_9,AccessDenied,18,18020002,NATURAL,NATURAL,41.27565215,-120.2786052,Clear Lake,Clear Lake,1.673939935,1.80E+13,AccessDenied,Target_Denied,NA,NA,PROB,"(10,20]",CA,CA_NLA12NEW,17.23202013,CA_>4,-1996138.02,679444.4862,NA,NA,NA,Target_Presumed
NLA12_CA-149,NA,NA,NA,WMTNS,WMT,4.187562874,No,NLA12NEW,NLA12_BASE,Include,32.21992063,22057885,22057885,22057885,3293.04,Region_9,Inaccessible-Barrier/Safety,18,18030001,NATURAL,NATURAL,36.50433554,-118.2693316,Lower Soldier Lake,NA,1.004943174,1.80E+13,Inaccessible-Barrier/Safety,Target_Inacc,NA,NA,PROB,"(4,10]",CA,CA_NLA12NEW,32.21992063,CA_>4,-1958252.554,118934.4487,NA,NA,NA,Target_Presumed
NLA12_CA-150,NA,NA,NA,WMTNS,WMT,5.787689639,No,NLA12NEW,NLA12_BASE,Include,32.21992063,17112535,17112535,17112535,2893,Region_9,Inaccessible-Barrier/Safety,18,18040006,NATURAL,NATURAL,37.62830247,-119.1541963,Holcomb Lake,Holcomb Lake,1.015913585,1.80E+13,Inaccessible-Barrier/Safety,Target_Inacc,NA,NA,PROB,"(4,10]",CA,CA_NLA12NEW,32.21992063,CA_>4,-2004165.611,259744.8027,NA,NA,NA,Target_Presumed
NLA12_CA-151,NA,NA,NA,WMTNS,WMT,3.278201555,No,NLA12NEW,NLA12_BASE,Exclude,89.29411765,17075971,17075971,17075971,2347.46,Region_9,Nontarget-NotLake,18,18040009,NA,NA,38.05838529,-119.6533195,Unnamed,NA,0.778946479,1.80E+13,Nontarget-NotLake,Not_Lake,NA,NA,PROB,"(1,4]",CA,CA_NLA12NEW,89.29411765,"CA_(1,4]",-2034608.167,317100.0193,NA,NA,NA,NonTarget
NLA12_CA-152,NA,NA,NA,WMTNS,XER,18.30262421,No,NLA12NEW,NLA12_BASE,Include,17.23202013,22680690,22680690,22680690,913.32,Region_9,Nontarget-NoRecAquatUse,18,18090206,MAN_MADE,MAN_MADE,34.51198613,-117.9165706,Unnamed,NA,1.850816511,1.81E+13,Nontarget-NoRecAquatUse,Lake_Special_Purpose,NA,NA,PROB,"(10,20]",CA,CA_NLA12NEW,17.23202013,CA_>4,-1978765.173,-105384.9259,NA,NA,NA,NonTarget
NLA12_CA-153,NA,NA,NA,WMTNS,WMT,2.617017951,No,NLA12NEW,NLA12_BASE,Exclude,89.29411765,22057483,22057483,22057483,3250.09,Region_9,Inaccessible-Barrier/Safety,18,18030010,NATURAL,NATURAL,36.90269653,-118.5585057,Unnamed,NA,0.65594563,1.80E+13,Inaccessible-Barrier/Safety,Target_Inacc,NA,NA,PROB,"(1,4]",CA,CA_NLA12NEW,89.29411765,"CA_(1,4]",-1972710.119,168309.0553,NA,NA,NA,Target_Presumed
NLA12_CA-154,1,7229,7/17/2012,WMTNS,XER,37.07423963,Yes,NLA12NEW,NLA12_BASE,Include,13.63456264,20310485,120053477,20310485,1329.45,Region_9,TargetSampleable,16,16040203,MAN_MADE,RESERVOIR,40.63158462,-120.00287,Smoke Creek Reservoir,Smoke Creek Reservoir,3.634373951,1.60E+13,TargetSampleable,Target_Sampled,S,NA,PROB,"(20,50]",CA,CA_NLA12NEW,13.63456264,CA_>4,-1991977.424,603852.1563,NA,S,S,Target
NLA12_CA-155,NA,NA,NA,WMTNS,XER,1.419710367,No,NLA12NEW,NLA12_BASE,Exclude,89.29411765,7993773,7993773,7993773,316.54,Region_9,Nontarget-TooSmall,18,18020115,NA,NA,39.45869039,-122.5193071,Unnamed,NA,0.481474731,1.80E+13,Nontarget-TooSmall,Lake_LT_1ha,NA,NA,PROB,"(1,4]",CA,CA_NLA12NEW,89.29411765,"CA_(1,4]",-2231829.585,532968.545,NA,NA,NA,NonTarget
NLA12_CA-156,1,8265,8/27/2012,WMTNS,XER,76.83942876,No,NLA12NEW,NLA12_BASE,Include,20.86922853,22683042,120052909,22683042,846.17,Region_9,TargetSampleable,18,18090208,MAN_MADE,MAN_MADE,34.49328953,-117.2618539,Spring Valley Lake,NA,10.93337987,1.81E+13,TargetSampleable,Target_Sampled,T,NA,PROB,>50,CA,CA_NLA12NEW,20.86922853,CA_>4,-1921122.335,-120855.8741,NA,T,T,Target
NLA12_CA-157,1,6642,6/18/2012,WMTNS,XER,168.429028,No,NLA12NEW,NLA12_BASE,Include,20.86922853,21611075,21611075,21611075,76.93,Region_9,TargetSampleable,18,18040001,MAN_MADE,MAN_MADE,37.3732653,-120.4335059,Lake Yosemite,NA,6.552443235,1.80E+13,TargetSampleable,Target_Sampled,T,NA,PROB,>50,CA,CA_NLA12NEW,20.86922853,CA_>4,-2119782.408,259811.4946,NA,T,T,Target
NLA12_CA-158,NA,NA,NA,WMTNS,WMT,10.03140329,No,NLA12NEW,NLA12_BASE,Include,17.23202013,17117141,17117141,17117141,3420.56,Region_9,Inaccessible-Effort,18,18040006,NATURAL,NATURAL,37.28182987,-118.7404838,Paris Lake,Paris Lake,1.385748364,1.80E+13,Inaccessible-Effort,Target_Inacc,NA,NA,PROB,"(10,20]",CA,CA_NLA12NEW,17.23202013,CA_>4,-1978251.145,213374.1769,NA,NA,NA,Target_Presumed
NLA12_CA-159,NA,NA,NA,WMTNS,XER,26.17741538,No,NLA12NEW,NLA12_BASE,Include,13.63456264,2784401,2784401,2784401,0,Region_9,Nontarget-NotLake,18,18050001,NA,NA,38.14065895,-122.0883274,Harvey Slough,NA,3.619553568,1.81E+13,Nontarget-NotLake,Not_Lake,NA,NA,PROB,"(20,50]",CA,CA_NLA12NEW,13.63456264,CA_>4,-2236529.14,380730.3711,NA,NA,NA,NonTarget
NLA12_CA-160,NA,NA,NA,WMTNS,WMT,5.705131371,No,NLA12NEW,NLA12_BASE,Include,32.21992063,3800743,3800743,3800743,2015.86,Region_9,Inaccessible-Barrier/Safety,18,18010208,NATURAL,NATURAL,41.31481402,-122.9262704,Eaton Lakes,Eaton Lakes,0.927557462,1.80E+13,Inaccessible-Barrier/Safety,Target_Inacc,NA,NA,PROB,"(4,10]",CA,CA_NLA12NEW,32.21992063,CA_>4,-2207039.267,742225.6784,NA,NA,NA,Target_Presumed
NLA12_CA-161,NA,NA,NA,WMTNS,XER,3.481819245,No,NLA12NEW,NLA12_BASE,Exclude,89.29411765,8202137,8202137,8202137,146.91,Region_9,AccessDenied,18,18060005,MAN_MADE,MAN_MADE,36.14302805,-121.1174362,Unnamed,NA,0.706995654,1.81E+13,AccessDenied,Target_Denied,NA,NA,PROB,"(1,4]",CA,CA_NLA12NEW,89.29411765,"CA_(1,4]",-2213755.276,142233.4482,NA,NA,NA,Target_Presumed
NLA12_CA-162,NA,NA,NA,WMTNS,WMT,11.97288579,No,NLA12NEW,NLA12_BASE,Include,17.23202013,21608995,21608995,21608995,2845.2,Region_9,Inaccessible-Barrier/Safety,18,18040008,NATURAL,NATURAL,37.77695733,-119.3852141,Emeric Lake,Emeric Lake,1.774964904,1.80E+13,Inaccessible-Barrier/Safety,Target_Inacc,NA,NA,PROB,"(10,20]",CA,CA_NLA12NEW,17.23202013,CA_>4,-2019700.202,280799.3527,NA,NA,NA,Target_Presumed
NLA12_CA-163,NA,NA,NA,WMTNS,XER,17.86701651,No,NLA12NEW,NLA12_BASE,Include,17.23202013,3950799,3950799,3950799,54,Region_9,AccessDenied,18,18040005,MAN_MADE,MAN_MADE,38.30649848,-121.0560372,Unnamed,NA,2.154730405,1.80E+13,AccessDenied,Target_Denied,NA,NA,PROB,"(10,20]",CA,CA_NLA12NEW,17.23202013,CA_>4,-2145291.578,374851.1156,NA,NA,NA,Target_Presumed
NLA12_CA-164,NA,NA,NA,WMTNS,WMT,2.026280881,No,NLA12NEW,NLA12_BASE,Exclude,89.29411765,20310435,20310435,20310435,1769.05,Region_9,Nontarget-TooSmall,18,18080002,NA,NA,40.91338098,-120.8276928,Catfish Reservoir,Catfish Reservoir,0.617313737,1.81E+13,Nontarget-TooSmall,Lake_LT_1ha,NA,NA,PROB,"(1,4]",CA,CA_NLA12NEW,89.29411765,"CA_(1,4]",-2050739.574,651920.1335,NA,NA,NA,NonTarget
NLA12_CA-165,NA,NA,NA,WMTNS,WMT,2.207323816,No,NLA12NEW,NLA12_BASE,Exclude,89.29411765,22057753,22057753,22057753,3271.21,Region_9,Inaccessible-Barrier/Safety,18,18030010,NATURAL,NATURAL,36.70687921,-118.4298884,Unnamed,NA,0.600199526,1.80E+13,Inaccessible-Barrier/Safety,Target_Inacc,NA,NA,PROB,"(1,4]",CA,CA_NLA12NEW,89.29411765,"CA_(1,4]",-1966803.117,144315.8171,NA,NA,NA,Target_Presumed
NLA12_CA-166,1,7423,7/24/2012,WMTNS,WMT,12.60971255,No,NLA12NEW,NLA12_BASE,Include,17.23202013,8038643,8038643,8038643,1884.91,Region_9,TargetSampleable,18,18020123,NATURAL,NATURAL,39.76106147,-120.7127085,Eureka Lake,Eureka Lake,1.465793782,1.80E+13,TargetSampleable,Target_Sampled,R,NA,PROB,"(10,20]",CA,CA_NLA12NEW,17.23202013,CA_>4,-2074648.846,524696.8887,R,R,R,Target
NLA12_CA-167,1,7263,7/18/2012,WMTNS,WMT,10.09473893,No,NLA12NEW,NLA12_BASE,Include,17.23202013,14991537,14991537,14991537,1797.3,Region_9,TargetSampleable,18,18020128,MAN_MADE,MAN_MADE,39.30959639,-120.578516,Kelly Lake,Kelly Lake,1.381695947,1.80E+13,TargetSampleable,Target_Sampled,R,NA,PROB,"(10,20]",CA,CA_NLA12NEW,17.23202013,CA_>4,-2076576.216,472863.3513,R,R,R,Target
NLA12_CA-168,1,6235,5/21/2012,WMTNS,XER,70.10301509,No,NLA12NEW_07RVT,NLA12_RVT07,Include,91.12744883,22560286,22560286,22560286,98.57,Region_9,TargetSampleable,18,18070203,MAN_MADE,MAN_MADE,33.8011914,-117.8101552,Orange County Water District Percolation Basin,NA,6.407347731,1.81E+13,TargetSampleable,Target_Sampled,T,NLA06608-1653,PROB,>50,CA,CA_NLA12NEW,91.12744883,CA_>4,-1987401.701,-184964.4375,NA,T,T,Target
NLA12_CA-169,NA,NA,NA,WMTNS,WMT,3.26858304,No,NLA12NEW,NLA12_BASE,Exclude,89.29411765,22057601,22057601,22057601,3152.3,Region_9,Inaccessible-Barrier/Safety,18,18030010,NATURAL,NATURAL,36.83935671,-118.476149,Unnamed,NA,0.683400964,1.80E+13,Inaccessible-Barrier/Safety,Target_Inacc,NA,NA,PROB,"(1,4]",CA,CA_NLA12NEW,89.29411765,"CA_(1,4]",-1967306.013,159703.3672,NA,NA,NA,Target_Presumed
NLA12_CA-170,NA,NA,NA,WMTNS,XER,8.32140126,No,NLA12NEW,NLA12_BASE,Include,32.21992063,1668323,1668323,1668323,60.39,Region_9,Nontarget-NoRecAquatUse,18,18050002,MAN_MADE,MAN_MADE,38.50123588,-122.4397324,St Helena Wastewater Treatment,NA,1.173641582,1.81E+13,Nontarget-NoRecAquatUse,Lake_Special_Purpose,NA,NA,PROB,"(4,10]",CA,CA_NLA12NEW,32.21992063,CA_>4,-2254779.064,427916.2352,NA,NA,NA,NonTarget
NLA12_CA-171,NA,NA,NA,WMTNS,XER,2.534480432,No,NLA12NEW,NLA12_BASE,Exclude,89.29411765,8005401,8005401,8005401,765.14,Region_9,AccessDenied,18,18020116,MAN_MADE,MAN_MADE,39.12932157,-122.815955,Unnamed,NA,0.891154687,1.80E+13,AccessDenied,Target_Denied,NA,NA,PROB,"(1,4]",CA,CA_NLA12NEW,89.29411765,"CA_(1,4]",-2266411.3,504518.9161,NA,NA,NA,Target_Presumed
NLA12_CA-172,1,6279,5/23/2012,WMTNS,XER,25.61192863,No,NLA12NEW,NLA12_BASE,Include,13.63456264,20341411,20341411,20341411,314.7,Region_9,TargetSampleable,18,18070303,MAN_MADE,MAN_MADE,33.15989079,-117.0432688,Dixon Lake,NA,3.075259305,1.81E+13,TargetSampleable,Target_Sampled,S,NA,PROB,"(20,50]",CA,CA_NLA12NEW,13.63456264,CA_>4,-1934417.852,-270596.817,NA,S,S,Target
NLA12_CA-173,NA,NA,NA,WMTNS,XER,12.21641941,No,NLA12NEW,NLA12_BASE,Include,17.23202013,19792263,19792263,19792263,2.83,Region_9,Nontarget-TooShallow,18,18060012,NATURAL,NATURAL,36.73695506,-121.8033673,Unnamed,NA,1.987673991,1.81E+13,Nontarget-TooShallow,Lake_Shallow,NA,NA,PROB,"(10,20]",CA,CA_NLA12NEW,17.23202013,CA_>4,-2254895.367,222516.5093,NA,NA,NA,NonTarget
NLA12_CA-174,1,6558,6/11/2012,WMTNS,XER,15.33535344,No,NLA12NEW,NLA12_BASE,Include,17.23202013,1890236,1890236,1890236,0,Region_9,TargetSampleable,18,18040003,MAN_MADE,MAN_MADE,37.91390879,-121.6012966,Discovery Bay,NA,2.569955959,1.80E+13,TargetSampleable,Target_Sampled,T,NA,PROB,"(10,20]",CA,CA_NLA12NEW,17.23202013,CA_>4,-2202565.442,344874.6437,NA,T,T,Target
NLA12_CA-175,NA,NA,NA,WMTNS,WMT,2.591708186,No,NLA12NEW,NLA12_BASE,Exclude,89.29411765,14921973,14921973,14921973,3213.94,Region_9,Inaccessible-Barrier/Safety,18,18030007,NATURAL,NATURAL,36.39271973,-118.5991674,Ansel Lake,Ansel Lake,0.636085477,1.80E+13,Inaccessible-Barrier/Safety,Target_Inacc,NA,NA,PROB,"(1,4]",CA,CA_NLA12NEW,89.29411765,"CA_(1,4]",-1989657.222,113629.4816,NA,NA,NA,Target_Presumed
NLA12_CA-176,NA,NA,NA,WMTNS,WMT,3.860855369,No,NLA12NEW,NLA12_BASE,Exclude,89.29411765,17053840,17053840,17053840,2398.09,Region_9,Inaccessible-Barrier/Safety,18,18040012,NATURAL,NATURAL,38.51920313,-119.9804794,Wheeler Lake,Wheeler Lake,0.875638585,1.80E+13,Inaccessible-Barrier/Safety,Target_Inacc,NA,NA,PROB,"(1,4]",CA,CA_NLA12NEW,89.29411765,"CA_(1,4]",-2049258.466,374167.15870000003,NA,NA,NA,Target_Presumed
NLA12_CA-177,NA,NA,NA,WMTNS,WMT,12.04900288,No,NLA12NEW,NLA12_BASE,Include,17.23202013,22048625,22048625,22048625,2990.76,Region_9,Inaccessible-Barrier/Safety,18,18030010,NATURAL,NATURAL,37.04133186,-118.8813052,Woodchuck Lake,Woodchuck Lake,1.546745632,1.80E+13,Inaccessible-Barrier/Safety,Target_Inacc,NA,NA,PROB,"(10,20]",CA,CA_NLA12NEW,17.23202013,CA_>4,-1996690.802,190142.4599,NA,NA,NA,Target_Presumed
NLA12_CA-178,NA,NA,NA,WMTNS,WMT,12.833031,No,NLA12NEW,NLA12_BASE,Include,17.23202013,8943227,8943227,8943227,2348.02,Region_9,Inaccessible-Barrier/Safety,16,16050101,NATURAL,NATURAL,38.91814343,-120.1233316,Azure Lake,Azure Lake,2.001543364,1.61E+13,Inaccessible-Barrier/Safety,Target_Inacc,NA,NA,PROB,"(10,20]",CA,CA_NLA12NEW,17.23202013,CA_>4,-2049974.291,420539.1299,NA,NA,NA,Target_Presumed
NLA12_CA-179,1,6623,6/14/2012,WMTNS,XER,5.153006095,No,NLA12NEW,NLA12_BASE,Include,32.21992063,1668851,1668851,1668851,0.03,Region_9,Nontarget-Coastal Saline,18,18050002,MAN_MADE,MAN_MADE,38.07792375,-122.5036091,Unnamed,NA,0.962837685,1.81E+13,Nontarget-Coastal Saline,Lake_Saline,NA,NA,PROB,"(4,10]",CA,CA_NLA12NEW,32.21992063,CA_>4,-2273146.283,383819.5401,NA,NA,NA,NonTarget
NLA12_CA-180,1,7064,7/10/2012,WMTNS,XER,4477.606177,No,NLA12NEW,NLA12_BASE,Include,20.86922853,20194524,20194524,20194524,142.8,Region_9,TargetSampleable,18,18020129,MAN_MADE,MAN_MADE,38.72817607,-121.131213,Folsom Lake,Folsom Lake,129.7812536,1.80E+13,TargetSampleable,Target_Sampled,S,NA,PROB,>50,CA,CA_NLA12NEW,20.86922853,CA_>4,-2139223.861,422171.969,NA,S,S,Target
NLA12_CA-181,1,8333,8/29/2012,WMTNS,XER,14.37020861,No,NLA12NEW,NLA12_BASE,Include,17.23202013,17693813,17693813,17693813,95.36,Region_9,TargetSampleable,18,18050003,MAN_MADE,MAN_MADE,37.17995179,-121.6910013,Ogier Pond,NA,1.5117473829999999,1.81E+13,TargetSampleable,Target_Sampled,S,NA,PROB,"(10,20]",CA,CA_NLA12NEW,17.23202013,CA_>4,-2232061.201,267689.5661,NA,S,S,Target
NLA12_CA-182,NA,NA,NA,WMTNS,XER,1.248699628,No,NLA12NEW,NLA12_BASE,Exclude,89.29411765,3950833,3950833,3950833,12.78,Region_9,Nontarget-TooSmall,18,18040005,NA,NA,38.29863265,-121.3221783,Unnamed,NA,0.469583198,1.80E+13,Nontarget-TooSmall,Lake_LT_1ha,NA,NA,PROB,"(1,4]",CA,CA_NLA12NEW,89.29411765,"CA_(1,4]",-2167771.754,380039.639,NA,NA,NA,NonTarget
NLA12_CA-183,NA,NA,NA,WMTNS,WMT,10.48489011,No,NLA12NEW,NLA12_BASE,Include,17.23202013,14968841,14968841,14968841,3330.97,Region_9,Inaccessible-Barrier/Safety,18,18030001,NATURAL,NATURAL,36.58464956,-118.5003458,Unnamed,NA,1.44896641,1.80E+13,Inaccessible-Barrier/Safety,Target_Inacc,NA,NA,PROB,"(10,20]",CA,CA_NLA12NEW,17.23202013,CA_>4,-1976077.466,132464.9657,NA,NA,NA,Target_Presumed
NLA12_CA-184,NA,NA,NA,WMTNS,WMT,6.889795513,No,NLA12NEW,NLA12_BASE,Include,32.21992063,17075851,17075851,17075851,2372.82,Region_9,Inaccessible-Barrier/Safety,18,18040009,NATURAL,NATURAL,38.14321093,-119.7361984,Cow Meadow Lake,Cow Meadow Lake,1.487765661,1.80E+13,Inaccessible-Barrier/Safety,Target_Inacc,NA,NA,PROB,"(4,10]",CA,CA_NLA12NEW,32.21992063,CA_>4,-2039238.558,328090.0419,NA,NA,NA,Target_Presumed
NLA12_CA-185,NA,NA,NA,WMTNS,WMT,5.71686672,No,NLA12NEW,NLA12_BASE,Include,32.21992063,22048333,22048333,22048333,3063.59,Region_9,Inaccessible-Barrier/Safety,18,18030010,NATURAL,NATURAL,37.16107019,-118.8458172,Lower Indian Lake,Lower Indian Lake,1.486269514,1.80E+13,Inaccessible-Barrier/Safety,Target_Inacc,NA,NA,PROB,"(4,10]",CA,CA_NLA12NEW,32.21992063,CA_>4,-1990459.462,202428.7198,NA,NA,NA,Target_Presumed
NLA12_CA-186,NA,NA,NA,WMTNS,WMT,2.6111337040000002,No,NLA12NEW,NLA12_BASE,Exclude,89.29411765,17075877,17075877,17075877,3082.29,Region_9,Inaccessible-Barrier/Safety,18,18040009,NATURAL,NATURAL,38.13534705,-119.5262587,Unnamed,NA,0.60152464,1.80E+13,Inaccessible-Barrier/Safety,Target_Inacc,NA,NA,PROB,"(1,4]",CA,CA_NLA12NEW,89.29411765,"CA_(1,4]",-2021789.74,322750.0819,NA,NA,NA,Target_Presumed
NLA12_CA-187,NA,NA,NA,WMTNS,XER,7.302385689,No,NLA12NEW,NLA12_BASE,Include,32.21992063,17599197,17599197,17599197,89.6,Region_9,Nontarget-NoRecAquatUse,18,18060012,NA,NA,36.59175993,-121.9428375,Forest Lake,Forest Lake,0.993974431,1.81E+13,Nontarget-NoRecAquatUse,Lake_Special_Purpose,NA,NA,PROB,"(4,10]",CA,CA_NLA12NEW,32.21992063,CA_>4,-2271165.444,210170.582,NA,NA,NA,NonTarget
NLA12_CA-188,1,7712,8/6/2012,WMTNS,XER,309.7251775,No,NLA12NEW,NLA12_BASE,Include,20.86922853,2803209,2803209,2803209,141.06,Region_9,TargetSampleable,18,18050004,MAN_MADE,RESERVOIR,37.77693239,-122.1186618,Upper San Leandro Reservoir,Upper San Leandro Reservoir,34.81754668,1.81E+13,TargetSampleable,Target_Sampled,R,NA,PROB,>50,CA,CA_NLA12NEW,20.86922853,CA_>4,-2250127.709,342207.5893,NA,R,R,Target
NLA12_CA-189,NA,NA,NA,WMTNS,XER,2.261562794,No,NLA12NEW,NLA12_BASE,Exclude,89.29411765,17660833,17660833,17660833,129.85,Region_9,AccessDenied,18,18060002,MAN_MADE,MAN_MADE,37.00536639,-121.3944484,Unnamed,NA,0.758729354,1.81E+13,AccessDenied,Target_Denied,NA,NA,PROB,"(1,4]",CA,CA_NLA12NEW,89.29411765,"CA_(1,4]",-2212081.82,241894.9977,NA,NA,NA,Target_Presumed
NLA12_CA-190,1,7208,7/16/2012,WMTNS,XER,48.14144143,No,NLA12NEW,NLA12_BASE,Include,13.63456264,2975088,2975088,2975088,42.15,Region_9,TargetSampleable,18,18040004,MAN_MADE,MAN_MADE,38.06047879,-121.0282226,Unnamed,NA,4.823763495,1.80E+13,TargetSampleable,Target_Sampled,S,NA,PROB,"(20,50]",CA,CA_NLA12NEW,13.63456264,CA_>4,-2150144.053,347599.2243,NA,S,S,Target
NLA12_CA-191,NA,NA,NA,WMTNS,WMT,3.929887126,No,NLA12NEW,NLA12_BASE,Exclude,89.29411765,14968723,14968723,14968723,3474.85,Region_9,Inaccessible-Barrier/Safety,18,18030001,NATURAL,NATURAL,36.65136905,-118.3956844,Unnamed,NA,0.730029357,1.80E+13,Inaccessible-Barrier/Safety,Target_Inacc,NA,NA,PROB,"(1,4]",CA,CA_NLA12NEW,89.29411765,"CA_(1,4]",-1965311.676,137561.477,NA,NA,NA,Target_Presumed
NLA12_CA-192,NA,NA,NA,WMTNS,WMT,25.6887264,No,NLA12NEW,NLA12_BASE,Include,13.63456264,17075961,17075961,17075961,1921.76,Region_9,Inaccessible-Barrier/Safety,18,18040009,NATURAL,NATURAL,38.0604824,-119.7492424,Edith Lake,Edith Lake,2.711959862,1.80E+13,Inaccessible-Barrier/Safety,Target_Inacc,NA,NA,PROB,"(20,50]",CA,CA_NLA12NEW,13.63456264,CA_>4,-2042628.999,319385.5051,NA,NA,NA,Target_Presumed
NLA12_CA-193,NA,NA,NA,WMTNS,WMT,5.117402175,No,NLA12NEW,NLA12_BASE,Include,32.21992063,22057439,22057439,22057439,3371.13,Region_9,Inaccessible-Barrier/Safety,18,18030010,NATURAL,NATURAL,36.92167109,-118.3891455,Unnamed,NA,1.133107651,1.80E+13,Inaccessible-Barrier/Safety,Target_Inacc,NA,NA,PROB,"(4,10]",CA,CA_NLA12NEW,32.21992063,CA_>4,-1957679.652,166873.673,NA,NA,NA,Target_Presumed
NLA12_CA-194,NA,NA,NA,WMTNS,XER,10.92926385,No,NLA12NEW,NLA12_BASE,Include,17.23202013,2846179,2846179,2846179,35.18,Region_9,Nontarget-TooSmall,18,18020104,NA,NA,39.48691845,-122.1996393,Unnamed,NA,1.237783027,1.80E+13,Nontarget-TooSmall,Lake_LT_1ha,NA,NA,PROB,"(10,20]",CA,CA_NLA12NEW,17.23202013,CA_>4,-2204755.012,528549.3654,NA,NA,NA,NonTarget
NLA12_CA-195,NA,NA,NA,WMTNS,XER,11.41189714,No,NLA12NEW,NLA12_BASE,Include,17.23202013,19770853,19770853,19770853,27.56,Region_9,Nontarget-Ephemeral,18,18040001,NA,NA,37.12451755,-120.7856693,Olson Pond,Olson Pond,1.786431551,1.80E+13,Nontarget-Ephemeral,Non_Target,NA,NA,PROB,"(10,20]",CA,CA_NLA12NEW,17.23202013,CA_>4,-2156832.194,240790.0026,NA,NA,NA,NonTarget
NLA12_CA-196,NA,NA,NA,WMTNS,XER,16.51264392,No,NLA12NEW,NLA12_BASE,Include,17.23202013,1670819,1670819,1670819,0,Region_9,Nontarget-NoRecAquatUse,18,18050002,NA,NA,37.94049657,-122.3842502,Unnamed,NA,3.486379825,1.81E+13,Nontarget-NoRecAquatUse,Lake_Special_Purpose,NA,NA,PROB,"(10,20]",CA,CA_NLA12NEW,17.23202013,CA_>4,-2267395.879,366157.4121,NA,NA,NA,NonTarget
NLA12_CA-197,NA,NA,NA,WMTNS,XER,170.6527803,No,NLA12NEW,NLA12_BASE,Include,20.86922853,17160972,17160972,17160972,67.51,Region_9,Nontarget-Ephemeral,18,18030012,NA,NA,35.74302478,-119.5884083,Unnamed,NA,8.694526573,1.80E+13,Nontarget-Ephemeral,Non_Target,NA,NA,PROB,>50,CA,CA_NLA12NEW,20.86922853,CA_>4,-2092868.411,64256.88525,NA,NA,NA,NonTarget
NLA12_CA-198,NA,NA,NA,WMTNS,XER,5.866349601,No,NLA12NEW,NLA12_BASE,Include,32.21992063,17065992,17065992,17065992,351.41,Region_9,Nontarget-Ephemeral,18,18040011,NA,NA,38.10243359,-120.6032613,Unnamed,NA,0.944483241,1.80E+13,Nontarget-Ephemeral,Non_Target,NA,NA,PROB,"(4,10]",CA,CA_NLA12NEW,32.21992063,CA_>4,-2113258.888,342609.9024,NA,NA,NA,NonTarget
NLA12_CA-199,NA,NA,NA,WMTNS,WMT,1.685343145,No,NLA12NEW,NLA12_BASE,Exclude,89.29411765,14968803,14968803,14968803,3561.65,Region_9,Inaccessible-Barrier/Safety,18,18030001,NATURAL,NATURAL,36.61901791,-118.4806321,Unnamed,NA,0.500347903,1.80E+13,Inaccessible-Barrier/Safety,Target_Inacc,NA,NA,PROB,"(1,4]",CA,CA_NLA12NEW,89.29411765,"CA_(1,4]",-1973476.247,135798.1676,NA,NA,NA,Target_Presumed
NLA12_CA-200,1,7366,7/23/2012,WMTNS,WMT,13.90867569,No,NLA12NEW,NLA12_BASE,Include,17.23202013,8932978,8932978,8932978,2314.27,Region_9,TargetSampleable,16,16050102,NATURAL,NATURAL,39.36848919,-120.322472,Frog Lake,Frog Lake,1.505085911,1.61E+13,TargetSampleable,Target_Sampled,R,NA,PROB,"(10,20]",CA,CA_NLA12NEW,17.23202013,CA_>4,-2053749.804,473682.3831,R,R,R,Target
NLA12_CA-201,NA,NA,NA,WMTNS,WMT,2.442156113,No,NLA12NEW,NLA12_BASE,Exclude,89.29411765,22048705,22048705,22048705,3469.11,Region_9,Inaccessible-Barrier/Safety,18,18030010,NATURAL,NATURAL,37.01838203,-118.4937819,Unnamed,NA,0.610857542,1.80E+13,Inaccessible-Barrier/Safety,Target_Inacc,NA,NA,PROB,"(1,4]",CA,CA_NLA12NEW,89.29411765,"CA_(1,4]",-1964116.857,179568.2104,NA,NA,NA,Target_Presumed
NLA12_CA-202,NA,NA,NA,WMTNS,XER,14.99153314,No,NLA12NEW,NLA12_BASE,Include,17.23202013,7981540,7981540,7981540,42.19,Region_9,Nontarget-NoRecAquatUse,18,18020107,MAN_MADE,MAN_MADE,39.19985216,-121.4505118,Unnamed,NA,3.955153398,1.80E+13,Nontarget-NoRecAquatUse,Lake_Special_Purpose,NA,NA,PROB,"(10,20]",CA,CA_NLA12NEW,17.23202013,CA_>4,-2151765.192,480386.2253,NA,NA,NA,NonTarget
NLA12_CA-203,NA,NA,NA,WMTNS,WMT,2.630123634,No,NLA12NEW,NLA12_BASE,Exclude,89.29411765,22048587,22048587,22048587,3388.63,Region_9,Nontarget-MapError,18,18030010,NA,NA,37.05761366,-118.7448163,NA,NA,0.643013428,1.80E+13,Nontarget-MapError,Not_Lake,NA,NA,PROB,"(1,4]",CA,CA_NLA12NEW,89.29411765,"CA_(1,4]",-1984576.876,189055.5487,NA,NA,NA,NonTarget
NLA12_CA-204,NA,NA,NA,WMTNS,XER,1.524926046,No,NLA12NEW,NLA12_BASE,Exclude,89.29411765,12070080,12070080,12070080,145.46,Region_9,Nontarget-TooSmall,18,18020103,NA,NA,39.90729912,-122.3467223,Unnamed,NA,0.537953276,1.80E+13,Nontarget-TooSmall,Lake_LT_1ha,NA,NA,PROB,"(1,4]",CA,CA_NLA12NEW,89.29411765,"CA_(1,4]",-2203921.038,577280.4458,NA,NA,NA,NonTarget
NLA12_CA-205,NA,NA,NA,WMTNS,WMT,5.835640089,No,NLA12NEW,NLA12_BASE,Include,32.21992063,21609125,21609125,21609125,2768.03,Region_9,Inaccessible-Barrier/Safety,18,18040008,NATURAL,NATURAL,37.59964918,-119.5183792,Buena Vista Lake,Buena Vista Lake,1.185430271,1.80E+13,Inaccessible-Barrier/Safety,Target_Inacc,NA,NA,PROB,"(4,10]",CA,CA_NLA12NEW,32.21992063,CA_>4,-2035833.914,264370.8355,NA,NA,NA,Target_Presumed
NLA12_CA-206,1,8076,8/20/2012,WMTNS,WMT,11052.35363,No,NLA12NEW,NLA12_BASE,Include,20.86922853,8260117,120054083,8260117,325.4,Region_9,TargetSampleable,18,18020003,MAN_MADE,RESERVOIR,40.76439588,-122.2541896,Shasta Lake,Shasta Lake,546.2851138,CID=919950001,TargetSampleable,Target_Sampled,S,NLA06608-2950,PROB,>50,CA,CA_NLA12NEW,20.86922853,CA_>4,-2170189.218,667513.8165,NA,S,S,Target
NLA12_CA-207,NA,NA,NA,WMTNS,WMT,7.478872624,No,NLA12NEW,NLA12_BASE,Include,32.21992063,22048269,120052832,22048269,3296.07,Region_9,Inaccessible-Barrier/Safety,18,18040006,NATURAL,NATURAL,37.50062758,-118.8884674,Lee Lake,Lee Lake,1.418002919,1.80E+13,Inaccessible-Barrier/Safety,Target_Inacc,NA,NA,PROB,"(4,10]",CA,CA_NLA12NEW,32.21992063,CA_>4,-1985026.962,240276.5597,NA,NA,NA,Target_Presumed
NLA12_CA-208,1,8149,8/21/2012,WMTNS,WMT,180.0083266,No,NLA12NEW,NLA12_BASE,Include,20.86922853,2554839,2554839,2554839,1246.23,Region_9,TargetSampleable,18,18010204,NATURAL,NATURAL_ENH,41.99178315,-121.8782454,Indian Tom Lake,Indian Tom Lake,6.568672504,1.80E+13,TargetSampleable,Target_Sampled,T,NA,PROB,>50,CA,CA_NLA12NEW,20.86922853,CA_>4,-2102940.483,791312.5979,NA,T,T,Target
NLA12_CA-209,NA,NA,NA,WMTNS,WMT,11.77384353,No,NLA12NEW,NLA12_BASE,Include,17.23202013,20294459,20294459,20294459,1388.86,Region_9,Nontarget-NoRecAquatUse,18,18020121,MAN_MADE,MAN_MADE,40.30513867,-121.2433236,NA,NA,1.872581063,1.80E+13,Nontarget-NoRecAquatUse,Lake_Special_Purpose,NA,NA,PROB,"(10,20]",CA,CA_NLA12NEW,17.23202013,CA_>4,-2102150.097,595224.8642,NA,NA,NA,NonTarget
NLA12_CA-210,NA,NA,NA,WMTNS,XER,37.94087806,No,NLA12NEW,NLA12_BASE,Include,13.63456264,17607407,17607407,17607407,177.57,Region_9,AccessDenied,18,18060010,MAN_MADE,MAN_MADE,34.54516026,-120.1346269,Alisal Lake,NA,4.322227344,1.81E+13,AccessDenied,Target_Denied,NA,NA,PROB,"(20,50]",CA,CA_NLA12NEW,13.63456264,CA_>4,-2173973.361,-53318.95138,NA,NA,NA,Target_Presumed
NLA12_CA-211,NA,NA,NA,WMTNS,WMT,7.147292724,No,NLA12NEW,NLA12_BASE,Include,32.21992063,17116861,17116861,17116861,3211.73,Region_9,Inaccessible-Barrier/Safety,18,18040006,NATURAL,NATURAL,37.42273288,-118.8028296,Third Recess Lake,Third Recess Lake,1.087880001,1.80E+13,Inaccessible-Barrier/Safety,Target_Inacc,NA,NA,PROB,"(4,10]",CA,CA_NLA12NEW,32.21992063,CA_>4,-1979817.869,230011.6028,NA,NA,NA,Target_Presumed
NLA12_CA-212,1,8398,9/5/2012,WMTNS,WMT,16.2944611,No,NLA12NEW,NLA12_BASE,Include,17.23202013,2775006,2775006,2775006,1865.21,Region_9,TargetSampleable,18,18020121,MAN_MADE,MAN_MADE,39.96955481,-121.2222947,Three Lakes,Three Lakes,2.481676645,1.80E+13,TargetSampleable,Target_Sampled,R,NA,PROB,"(10,20]",CA,CA_NLA12NEW,17.23202013,CA_>4,-2110302.294,558477.9902,R,R,R,Target
NLA12_CA-213,NA,NA,NA,WMTNS,XER,3.171581977,No,NLA12NEW,NLA12_BASE,Exclude,89.29411765,17114683,17114683,17114683,400.72,Region_9,AccessDenied,18,18040006,MAN_MADE,MAN_MADE,37.03470837,-119.5446945,Unnamed,NA,0.782735044,1.80E+13,AccessDenied,Target_Denied,NA,NA,PROB,"(1,4]",CA,CA_NLA12NEW,89.29411765,"CA_(1,4]",-2053590.034,203559.0821,NA,NA,NA,Target_Presumed
NLA12_CA-214,NA,NA,NA,WMTNS,WMT,19.44102431,No,NLA12NEW,NLA12_BASE,Include,17.23202013,8317789,120053444,8317789,1800.9,Region_9,Inaccessible-Barrier/Safety,18,18010211,NATURAL,NATURAL,40.99878771,-123.0117913,Sapphire Lake,Sapphire Lake,2.289163804,1.80E+13,Inaccessible-Barrier/Safety,Target_Inacc,NA,NA,PROB,"(10,20]",CA,CA_NLA12NEW,17.23202013,CA_>4,-2223781.516,710252.5907,NA,NA,NA,Target_Presumed
NLA12_CA-215,NA,NA,NA,WMTNS,WMT,8.057466483,No,NLA12NEW,NLA12_BASE,Include,32.21992063,17112447,17112447,17112447,2842.62,Region_9,Inaccessible-Barrier/Safety,18,18040006,NATURAL,NATURAL,37.68690484,-119.1227807,Rosalie Lake,Rosalie Lake,1.033208808,1.80E+13,Inaccessible-Barrier/Safety,Target_Inacc,NA,NA,PROB,"(4,10]",CA,CA_NLA12NEW,32.21992063,CA_>4,-1999917.952,265457.1148,NA,NA,NA,Target_Presumed
NLA12_CA-216,NA,NA,NA,WMTNS,XER,4.40383174,No,NLA12NEW,NLA12_BASE,Include,32.21992063,17563480,17563480,17563480,241.9,Region_9,AccessDenied,18,18070103,MAN_MADE,MAN_MADE,34.25680211,-118.7919092,Sinaloa Lake,Sinaloa Lake,1.331359853,1.81E+13,AccessDenied,Target_Denied,NA,NA,PROB,"(4,10]",CA,CA_NLA12NEW,32.21992063,CA_>4,-2063082.596,-114517.1551,NA,NA,NA,Target_Presumed
NLA12_CA-217,NA,NA,NA,WMTNS,WMT,9.83360014,No,NLA12NEW,NLA12_BASE,Include,32.21992063,7953162,7953162,7953162,1926.51,Region_9,Nontarget-Ephemeral,18,18020003,NATURAL,NATURAL,40.74727985,-120.9664028,Ashurst Lake,Ashurst Lake,1.348422247,1.80E+13,Nontarget-Ephemeral,Non_Target,NA,NA,PROB,"(4,10]",CA,CA_NLA12NEW,32.21992063,CA_>4,-2066763.634,636958.3157,NA,NA,NA,NonTarget
NLA12_CA-218,NA,NA,NA,WMTNS,XER,16.53832278,No,NLA12NEW,NLA12_BASE,Include,17.23202013,10001794,10001794,10001794,66.31,Region_9,Nontarget-Ephemeral,15,15030104,NATURAL,NATURAL,33.11049325,-114.7070849,Unnamed,NA,3.435122428,1.50E+13,Nontarget-Ephemeral,Non_Target,NA,NA,PROB,"(10,20]",CA,CA_NLA12NEW,17.23202013,CA_>4,-1723699.121,-320956.7442,NA,NA,NA,NonTarget
NLA12_CA-219,NA,NA,NA,WMTNS,WMT,7.234121489,No,NLA12NEW,NLA12_BASE,Include,32.21992063,17117109,17117109,17117109,3362.36,Region_9,Inaccessible-Effort,18,18040006,NATURAL,NATURAL,37.29235557,-118.729506,Moon Lake,Moon Lake,1.020421553,1.80E+13,Inaccessible-Effort,Target_Inacc,NA,NA,PROB,"(4,10]",CA,CA_NLA12NEW,32.21992063,CA_>4,-1977035.017,214291.6683,NA,NA,NA,Target_Presumed
NLA12_CA-220,NA,NA,NA,WMTNS,WMT,9.336993425,No,NLA12NEW,NLA12_BASE,Include,32.21992063,8316697,8316697,8316697,18.12,Region_9,Nontarget-Vegetated,18,18010102,MAN_MADE,MAN_MADE,40.91176545,-124.029552,Essex Pond,Essex Pond,1.178163399,1.80E+13,Nontarget-Vegetated,Lake_Vegetated,NA,NA,PROB,"(4,10]",CA,CA_NLA12NEW,32.21992063,CA_>4,-2308004.888,725180.5184,NA,NA,NA,NonTarget
NLA12_CA-221,NA,NA,NA,WMTNS,WMT,10.47713168,No,NLA12NEW,NLA12_BASE,Include,17.23202013,17080787,17080787,17080787,2896.66,Region_9,Inaccessible-Effort,18,18040009,NATURAL,NATURAL,37.8450099,-119.3699033,Elizabeth Lake,Elizabeth Lake,1.552885049,1.80E+13,Inaccessible-Effort,Target_Inacc,NA,NA,PROB,"(10,20]",CA,CA_NLA12NEW,17.23202013,CA_>4,-2016547.841,287871.8527,NA,NA,NA,Target_Presumed
NLA12_CA-222,NA,NA,NA,WMTNS,WMT,11.51302195,No,NLA12NEW,NLA12_BASE,Include,17.23202013,7951546,7951546,7951546,974.31,Region_9,Nontarget-NotLake,18,18020003,NA,NA,40.88082744,-121.5410256,NA,NA,3.109780711,1.80E+13,Nontarget-NotLake,Not_Lake,NA,NA,PROB,"(10,20]",CA,CA_NLA12NEW,17.23202013,CA_>4,-2109223.098,664014.6317,NA,NA,NA,NonTarget
NLA12_CA-223,1,8779,9/26/2012,WMTNS,WMT,34.97828404,No,NLA12NEW,NLA12_BASE,Include,13.63456264,20288082,120053886,20288082,2732.75,Region_9,TargetSampleable,18,18090102,MAN_MADE,MAN_MADE,37.60310878,-119.0030315,Lake Mary,Lake Mary,2.847763464,1.81E+13,TargetSampleable,Target_Sampled,S,NA,PROB,"(20,50]",CA,CA_NLA12NEW,13.63456264,CA_>4,-1992015.382,253825.8345,NA,S,S,Target
NLA12_CA-R01,1,7338,7/20/2012,WMTNS,WMT,99.66084063,No,NA,NA,NA,NA,5330665,5330665,5330665,198.57,Region_9,TargetSampleable,18,18050005,MAN_MADE,MAN_MADE,37.94905065,-122.6274594,ALPINE LAKE,Alpine Lake,13.75653829,1.81E+13,TargetSampleable,Target_Sampled,S,NLA06608-0501,HAND,NA,CA,NA,NA,NA,-2287484.295,372907.5508,R,S,S,Target
NLA12_CA-R02,1,7396,7/23/2012,WMTNS,WMT,385.8957227,No,NA,NA,NA,NA,8932970,8932970,8932970,1709.58,Region_9,TargetSampleable,16,16050102,MAN_MADE,MAN_MADE,39.40604459,-120.0965946,BOCA RESERVOIR,Boca Reservoir,21.29411408,1.61E+13,TargetSampleable,Target_Sampled,S,NLA06608-0713,HAND,NA,CA,NA,NA,NA,-2034033.763,472897.5101,NA,S,S,Target
NLA12_CA-R03,1,7379,7/22/2012,WMTNS,XER,2267.070511,No,NA,NA,NA,NA,21606665,21606665,21606665,255.73,Region_9,TargetSampleable,18,18040008,MAN_MADE,MAN_MADE,37.66379232,-120.2158143,LAKE MCCLURE,Lake McClure,135.7417686,1.80E+13,TargetSampleable,Target_Sampled,S,NLA06608-1717,HAND,NA,CA,NA,NA,NA,-2093101.409,286485.0468,R,S,S,Target
NLA12_CA-R05,1,7289,7/18/2012,WMTNS,WMT,2.894677356,No,NA,NA,NA,NA,2772456,2772456,2772456,2199.11,Region_9,TargetSampleable,18,18020121,NATURAL,NATURAL,40.45893329,-121.2909231,CRYSTAL LAKE,Crystal Lake,0.67908376,1.80E+13,TargetSampleable,Target_Sampled,R,NA,HAND,NA,CA,NA,NA,NA,-2101488.979,612900.8068,R,R,R,Target
NLA12_CA-R06,1,7230,7/16/2012,WMTNS,WMT,2.919234551,No,NA,NA,NA,NA,2772492,2772492,2772492,1772.81,Region_9,TargetSampleable,18,18020121,NATURAL,NATURAL,40.39703508,-121.3623357,DOMINGO LAKE,Domingo Lake,0.685937652,1.80E+13,TargetSampleable,Target_Sampled,R,NA,HAND,NA,CA,NA,NA,NA,-2109110.095,607793.7691,R,R,R,Target
NLA12_CA-R09,1,1000057,7/12/2012,WMTNS,WMT,3.827814934,No,NA,NA,NA,NA,8914599,8914599,8914599,2969.81,Region_9,TargetSampleable,16,16050301,NATURAL,NATURAL,38.04703186,-119.2594305,LITTLE VIRGINIA LAKE,NA,0.724629452,1.61E+13,TargetSampleable,Target_Sampled,T,NA,HAND,NA,CA,NA,NA,NA,-2001720.198,307501.2513,NA,T,T,Target
NLA12_CA-R10,1,7254,7/17/2012,WMTNS,WMT,18.22610848,No,NA,NA,NA,NA,2772488,2772488,2772488,1653.01,Region_9,TargetSampleable,18,18020121,NATURAL,NATURAL,40.40351019,-121.3588354,WILLOW LAKE,Willow Lake,1.798700681,1.80E+13,TargetSampleable,Target_Sampled,R,NA,HAND,NA,CA,NA,NA,NA,-2108634.691,608415.7742,R,R,R,Target
NLA12_CA-R12,1,7200,7/15/2012,WMTNS,WMT,8.146257736,No,NA,NA,NA,NA,2772494,2772494,2772494,1639.81,Region_9,TargetSampleable,18,18020121,NATURAL,NATURAL,40.38862429,-121.299224,BLUE LAKE,Blue Lake,1.101449092,1.80E+13,TargetSampleable,Target_Sampled,S,NA,HAND,NA,CA,NA,NA,NA,-2104234.394,605485.8003,NA,S,S,Target
NLA12_CA-R13,1,7172,7/13/2012,WMTNS,WMT,10.12820815,No,NA,NA,NA,NA,8914597,8914597,8914597,2993.11,Region_9,TargetSampleable,16,16050301,NATURAL,NATURAL,38.04692295,-119.2654654,VIRGINIA LAKE,NA,1.23619893,1.61E+13,TargetSampleable,Target_Sampled,S,NA,HAND,NA,CA,NA,NA,NA,-2002232.107,307616.5396,NA,S,S,Target
NLA12_CO-101,1,7173,7/13/2012,PLNLOW,SPL,303.645989,No,NLA07RVT,NLA07_RVT12,Include,19.12157378,1594371,1594371,1594371,1181.28,Region_8,TargetSampleable,11,11020009,MAN_MADE,RESERVOIR,38.30009665,-102.7612671,Neegronda Reservoir,Neegronda Reservoir,8.631690336,1.10E+13,TargetSampleable,Target_Sampled,S,NLA06608-0864,PROB,>50,CO,CO_NLA07RVT,19.12157378,CO_>4,-585216.7714,110501.5384,NA,S,S,Target
NLA12_CO-101,2,8129,8/21/2012,PLNLOW,SPL,303.645989,No,NLA07RVT,NLA07_RVT12,Include,19.12157378,1594371,1594371,1594371,1181.28,Region_8,TargetSampleable,11,11020009,MAN_MADE,RESERVOIR,38.30009665,-102.7612671,Neegronda Reservoir,Neegronda Reservoir,8.631690336,1.10E+13,TargetSampleable,Target_Sampled,S,NLA06608-0864,PROB,>50,CO,CO_NLA07RVT,19.12157378,CO_>4,-585216.7714,110501.5384,NA,S,S,Target
NLA12_CO-102,1,6795,6/26/2012,WMTNS,WMT,14.98464518,No,NLA07RVT,NLA07_RVT12,Include,139.0707292,3230751,3230751,3230751,3070.94,Region_8,TargetSampleable,14,14020005,MAN_MADE,RESERVOIR,38.99724122,-108.0511795,Big Battlement Lake,Big Battlement Lake,1.620431695,1.40E+13,TargetSampleable,Target_Sampled,R,NLA06608-0687,PROB,"(10,20]",CO,CO_NLA07RVT,139.0707292,CO_>4,-1031283.846,233291.0659,R,R,R,Target
NLA12_CO-103,1,8505,9/12/2012,PLNLOW,SPL,611.5611803,No,NLA07RVT,NLA07_RVT12,Include,19.12157378,11646,11646,11646,1510.61,Region_8,TargetSampleable,10,10190006,MAN_MADE,RESERVOIR,40.43632395,-105.0336532,Boyd Lake,NA,17.08625846,1.02E+13,TargetSampleable,Target_Sampled,T,NLA06608-1403,PROB,>50,CO,CO_NLA07RVT,19.12157378,CO_>4,-758661.0453,365159.7826,NA,T,T,Target
NLA12_CO-104,1,8596,9/14/2012,PLNLOW,SPL,72.49623774,No,NLA07RVT,NLA07_RVT12,Include,17.3655691,2890152,2890152,2890152,1487.14,Region_8,TargetSampleable,10,10190005,MAN_MADE,RESERVOIR,40.22358076,-104.9472807,Lake Thomas,New Thomas Reservoir,5.616831826,1.02E+13,TargetSampleable,Target_Sampled,T,NLA06608-1339,PROB,>50,CO,CO_NLA07RVT,17.3655691,CO_>4,-753669.4165,340746.1848,NA,T,T,Target
NLA12_CO-105,1,8325,8/30/2012,WMTNS,WMT,65.38610038,No,NLA07RVT,NLA07_RVT12,Include,33.9172379,3262179,3262179,3262179,2213,Region_8,TargetSampleable,14,14080202,MAN_MADE,RESERVOIR,37.4167824,-108.4056506,Puett Reservoir,Puett Reservoir,6.011170144,1.41E+13,TargetSampleable,Target_Sampled,T,NLA06608-0004,PROB,>50,CO,CO_NLA07RVT,33.9172379,CO_>4,-1084506.176,61560.42969,NA,T,T,Target
NLA12_CO-106,1,7325,7/20/2012,PLNLOW,SPL,189.8164828,No,NLA07RVT,NLA07_RVT12,Include,19.12157378,16000330,16000330,16000330,1562.41,Region_8,TargetSampleable,10,10190006,MAN_MADE,RESERVOIR,40.33707955,-105.1266943,Lonetree Reservoir,Lonetree Reservoir,7.98199166,1.02E+13,TargetSampleable,Target_Sampled,S,NLA06608-0635,PROB,>50,CO,CO_NLA07RVT,19.12157378,CO_>4,-767516.9396,354839.9375,NA,S,S,Target
NLA12_CO-107,1,8297,8/29/2012,WMTNS,WMT,50.09886464,No,NLA07RVT,NLA07_RVT12,Include,33.9172379,18377442,18377442,18377442,2959.6,Region_8,TargetSampleable,14,14030003,MAN_MADE,RESERVOIR,37.8246388,-107.885134,Trout Lake,Trout Lake,3.228831558,1.40E+13,TargetSampleable,Target_Sampled,S,NLA06608-0068,PROB,>50,CO,CO_NLA07RVT,33.9172379,CO_>4,-1033543.435,101097.2201,NA,S,S,Target
NLA12_CO-108,1,6976,7/5/2012,WMTNS,WMT,10.22284808,No,NLA07RVT,NLA07_RVT12,Include,139.0707292,946899,946899,946899,3147,Region_8,TargetSampleable,11,11020002,MAN_MADE,RESERVOIR,38.7911491,-105.1063606,Cripple Creek Number 2 Reservoir,Cripple Creek Number 2 Reservoir,1.557596057,1.10E+13,TargetSampleable,Target_Sampled,R,NLA06608-0916,PROB,"(10,20]",CO,CO_NLA07RVT,139.0707292,CO_>4,-782387.3263,182229.0652,R,B,R,Target
NLA12_CO-109,1,8184,8/23/2012,WMTNS,WMT,51.02796638,No,NLA07RVT,NLA07_RVT12,Include,33.9172379,1233765,1233765,1233765,3029.04,Region_8,TargetSampleable,14,14010001,MAN_MADE,RESERVOIR,40.05558648,-105.7470802,Meadow Creek Reservoir,Meadow Creek Reservoir,3.609063575,1.40E+13,TargetSampleable,Target_Sampled,S,NLA06608-1483,PROB,>50,CO,CO_NLA07RVT,33.9172379,CO_>4,-822740.5245,328648.7115,R,S,S,Target
NLA12_CO-110,1,6342,5/29/2012,PLNLOW,SPL,18.24577471,No,NLA07RVT,NLA07_RVT12,Include,71.20398155,2890996,2890996,2890996,1620.93,Region_8,TargetSampleable,10,10190005,MAN_MADE,RESERVOIR,39.99496234,-105.112227,Waneka Reservoir,Waneka Reservoir,1.618216994,1.02E+13,TargetSampleable,Target_Sampled,S,NLA06608-0827,PROB,"(10,20]",CO,CO_NLA07RVT,71.20398155,CO_>4,-769973.6422,316569.494,NA,S,S,Target
NLA12_CO-111,1,8477,9/11/2012,PLNLOW,SPL,217.4881284,No,NLA07RVT,NLA07_RVT12,Include,19.12157378,2888348,2888348,2888348,1576.75,Region_8,TargetSampleable,10,10190005,MAN_MADE,RESERVOIR,40.0798358,-105.2171741,Boulder Reservoir,Boulder Reservoir,6.681900771,1.02E+13,TargetSampleable,Target_Sampled,S,NLA06608-1851,PROB,>50,CO,CO_NLA07RVT,19.12157378,CO_>4,-777893.011,326889.5845,NA,S,S,Target
NLA12_CO-112,NA,NA,NA,PLNLOW,SPL,9.302575508,No,NLA12NEW,NLA12_BASE,Include,111.2858011,11711883,11711883,11711883,1251.37,Region_8,Nontarget-NoRecAquatUse,10,10250002,MAN_MADE,MAN_MADE,40.12196807,-102.6960597,city sewage pond,NA,1.360224997,1.03E+13,Nontarget-NoRecAquatUse,Lake_Special_Purpose,NA,NA,PROB,"(4,10]",CO,CO_NLA12NEW,111.2858011,CO_>4,-565207.357,313777.5539,NA,NA,NA,NonTarget
NLA12_CO-113,NA,NA,NA,PLNLOW,SPL,8.435756746,No,NLA12NEW,NLA12_BASE,Include,111.2858011,230875,230875,230875,1860.85,Region_8,AccessDenied,10,10190003,MAN_MADE,RESERVOIR,39.45111058,-104.7443632,Pinery Reservoir,Pinery Reservoir,1.222341766,1.02E+13,AccessDenied,Target_Denied,NA,NA,PROB,"(4,10]",CO,CO_NLA12NEW,111.2858011,CO_>4,-744578.9285,252962.9608,NA,NA,NA,Target_Presumed
NLA12_CO-114,1,6874,6/27/2012,WMTNS,WMT,5.726832826,No,NLA12NEW,NLA12_BASE,Include,111.2858011,3230297,3230297,3230297,3105.21,Region_8,TargetSampleable,14,14020005,MAN_MADE,RESERVOIR,39.03670301,-107.9111308,Youngs Creek Reservoir Number 1,Youngs Creek Reservoir Number 1,1.028831741,1.40E+13,TargetSampleable,Target_Sampled,S,NA,PROB,"(4,10]",CO,CO_NLA12NEW,111.2858011,CO_>4,-1018809.418,236168.3275,NA,S,S,Target
NLA12_CO-115,1,7102,7/11/2012,WMTNS,WMT,3.511584722,No,NLA12NEW,NLA12_BASE,Exclude,329.2857143,1342174,1342174,1342174,2994.12,Region_8,TargetSampleable,14,14050005,NATURAL,NATURAL,40.00305447,-107.3583306,Near Rainbow Lake,NA,1.003755396,1.41E+13,TargetSampleable,Target_Sampled,R,NA,PROB,"(1,4]",CO,CO_NLA12NEW,329.2857143,"CO_(1,4]",-958844.2688,337902.1994,R,R,R,Target
NLA12_CO-116,NA,NA,NA,PLNLOW,SPL,5.322242481,No,NLA12NEW,NLA12_BASE,Include,111.2858011,3554452,3554452,3554452,1215.49,Region_8,AccessDenied,10,10190012,MAN_MADE,RESERVOIR,40.84116864,-103.1195785,Larson Pond,Larson Pond,1.335151093,1.02E+13,AccessDenied,Target_Denied,NA,NA,PROB,"(4,10]",CO,CO_NLA12NEW,111.2858011,CO_>4,-594861.4583,396711.5455,NA,NA,NA,Target_Presumed
NLA12_CO-117,1,7686,8/2/2012,WMTNS,WMT,35.17102053,No,NLA12NEW,NLA12_BASE,Include,48.6430474,17030676,17030676,17030676,2348.41,Region_8,TargetSampleable,14,14080102,MAN_MADE,RESERVOIR,37.31623199,-107.1129943,Hatcher Reservoir,Lake Hatcher,3.425642783,1.41E+13,TargetSampleable,Target_Sampled,T,NA,PROB,"(20,50]",CO,CO_NLA12NEW,48.6430474,CO_>4,-973362.1687,36382.19057,NA,T,T,Target
NLA12_CO-118,NA,NA,NA,WMTNS,WMT,1.808649004,No,NLA12NEW,NLA12_BASE,Exclude,329.2857143,1324845,1324845,1324845,2507.54,Region_8,Nontarget-TooSmall,14,14010004,MAN_MADE,MAN_MADE_AB,39.51438164,-107.1415207,Ralston Reservoir Number 1,Ralston Reservoir Number 1,0.573136262,1.40E+13,Nontarget-TooSmall,Lake_LT_1ha,NA,NA,PROB,"(1,4]",CO,CO_NLA12NEW,329.2857143,"CO_(1,4]",-947031.6686,281351.5879,NA,NA,NA,NonTarget
NLA12_CO-119,1,7322,7/18/2012,WMTNS,WMT,6.135920724,No,NLA12NEW,NLA12_BASE,Include,111.2858011,2888108,2888108,2888108,3594.97,Region_8,TargetSampleable,10,10190005,NATURAL,NATURAL,40.25822853,-105.604528,Chasm Lake,Chasm Lake,0.98519388,1.02E+13,TargetSampleable,Target_Sampled,R,NA,PROB,"(4,10]",CO,CO_NLA12NEW,111.2858011,CO_>4,-808458.5177,350011.2489,R,B,R,Target
NLA12_CO-120,NA,NA,NA,PLNLOW,SPL,19.47341772,No,NLA12NEW,NLA12_BASE,Include,48.6430474,2884656,2884656,2884656,1855.7,Region_8,Nontarget-NoRecAquatUse,10,10190004,MAN_MADE,RESERVOIR,39.82236017,-105.2377287,Upper Long Lake,Upper Long Lake,2.281064288,1.02E+13,Nontarget-NoRecAquatUse,Lake_Special_Purpose,NA,NA,PROB,"(10,20]",CO,CO_NLA12NEW,48.6430474,CO_>4,-782422.23,298344.3113,NA,NA,NA,NonTarget
NLA12_CO-121,1,7684,8/1/2012,WMTNS,WMT,2.056298199,No,NLA12NEW,NLA12_BASE,Exclude,329.2857143,17905749,17905749,17905749,3530.52,Region_8,TargetSampleable,13,13010001,MAN_MADE,RESERVOIR,37.67328141,-107.1127777,Jumper Lake,Jumper Lake,0.714034605,1.30E+13,TargetSampleable,Target_Sampled,S,NA,PROB,"(1,4]",CO,CO_NLA12NEW,329.2857143,"CO_(1,4]",-968674.8253,76121.09935,R,S,S,Target
NLA12_CO-122,NA,NA,NA,WMTNS,XER,5.103584276,No,NLA12NEW,NLA12_BASE,Include,111.2858011,2521950,2521950,2521950,2061.67,Region_8,Nontarget-NotLake,14,14030001,NA,NA,39.02239354,-108.7640216,Thompson Reservoir Number 1,Thompson Reservoir Number 1,0.906833646,1.40E+13,Nontarget-NotLake,Not_Lake,NA,NA,PROB,"(4,10]",CO,CO_NLA12NEW,111.2858011,CO_>4,-1091551.139,244047.927,NA,NA,NA,NonTarget
NLA12_CO-123,NA,NA,NA,PLNLOW,SPL,22.40545434,No,NLA12NEW,NLA12_BASE,Include,34.43077491,2901271,2901271,2901271,1580.93,Region_8,AccessDenied,10,10190007,MAN_MADE,RESERVOIR,40.63317518,-104.9484579,Hinkley Lake,Hinkley Lake,2.202270352,1.02E+13,AccessDenied,Target_Denied,NA,NA,PROB,"(20,50]",CO,CO_NLA12NEW,34.43077491,CO_>4,-749454.2901,386434.9419,NA,NA,NA,Target_Presumed
NLA12_CO-124,1,6753,6/22/2012,PLNLOW,SPL,9.204629265,No,NLA12NEW,NLA12_BASE,Include,111.2858011,228961,228961,228961,1600.49,Region_8,TargetSampleable,10,10190003,MAN_MADE,RESERVOIR,39.93104164,-104.9732957,Hunters Glen Lake,Poitz Reservoir,1.125955062,1.02E+13,TargetSampleable,Target_Sampled,T,NA,PROB,"(4,10]",CO,CO_NLA12NEW,111.2858011,CO_>4,-758944.5414,308322.0895,NA,T,T,Target
NLA12_CO-125,1,7476,7/26/2012,WMTNS,WMT,1.638010034,No,NLA12NEW,NLA12_BASE,Exclude,329.2857143,916277,916277,916277,2959.99,Region_8,TargetSampleable,11,11020001,NATURAL,NATURAL,39.22067903,-106.3916958,Evergreen Lakes,NA,0.49435329,1.10E+13,TargetSampleable,Target_Sampled,R,NA,PROB,"(1,4]",CO,CO_NLA12NEW,329.2857143,"CO_(1,4]",-887151.9964,241410.1321,R,R,R,Target
NLA12_CO-126,1,6938,7/2/2012,WMTNS,WMT,11.97167642,No,NLA12NEW,NLA12_BASE,Include,48.6430474,15994784,15994784,15994784,2488.2,Region_8,Nontarget-TooShallow,10,10180001,MAN_MADE,RESERVOIR,40.66208352,-106.3278645,Elk Pond,NA,1.506656515,1.02E+13,Nontarget-TooShallow,Lake_Shallow,NA,NA,PROB,"(10,20]",CO,CO_NLA12NEW,48.6430474,CO_>4,-864207.0026,401367.5825,NA,NA,NA,NonTarget
NLA12_CO-127,1,8414,9/6/2012,PLNLOW,SPL,24.71587035,No,NLA12NEW,NLA12_BASE,Include,199.4043622,2890238,2890238,2890238,1509.83,Region_8,TargetSampleable,10,10190005,MAN_MADE,RESERVOIR,40.12169493,-104.9459108,Milevec Reservoir,Firestone Lake,1.961036202,1.02E+13,TargetSampleable,Target_Sampled,T,NA,PROB,"(20,50]",CO,CO_NLA12NEW,199.4043622,CO_>4,-754627.3276,329370.9098,NA,T,T,Target
NLA12_CO-128,NA,NA,NA,PLNLOW,SPL,2.442159275,No,NLA12NEW,NLA12_BASE,Exclude,329.2857143,11702018,11702018,11702018,1353.56,Region_8,Nontarget-TooSmall,10,10250003,MAN_MADE,MAN_MADE_AB,39.22709244,-102.6188939,NA,NA,0.633063856,1.03E+13,Nontarget-TooSmall,Lake_LT_1ha,NA,NA,PROB,"(1,4]",CO,CO_NLA12NEW,329.2857143,"CO_(1,4]",-565683.1941,213283.7522,NA,NA,NA,NonTarget
NLA12_CO-129,1,7395,7/24/2012,PLNLOW,SPL,2.905501949,No,NLA12NEW,NLA12_BASE,Exclude,329.2857143,936730,936730,936730,1720.86,Region_8,TargetSampleable,11,11020010,NATURAL,NATURAL,37.28488371,-104.3381595,Muskrat Farm,NA,1.05535296,1.10E+13,TargetSampleable,Target_Sampled,S,NA,PROB,"(1,4]",CO,CO_NLA12NEW,329.2857143,"CO_(1,4]",-731356.7767,7997.770206,NA,S,S,Target
NLA12_CO-130,1,7957,8/15/2012,WMTNS,WMT,3.837669916,No,NLA12NEW,NLA12_BASE,Exclude,329.2857143,1312039,1312039,1312039,3435.34,Region_8,TargetSampleable,14,14010002,NATURAL,NATURAL,39.64574357,-106.1674308,Willow Lakes,NA,0.948242326,1.40E+13,TargetSampleable,Target_Sampled,R,NA,PROB,"(1,4]",CO,CO_NLA12NEW,329.2857143,"CO_(1,4]",-862993.2141,286704.1042,R,B,R,Target
NLA12_CO-131,1,6875,6/28/2012,WMTNS,XER,17.39618854,No,NLA12NEW,NLA12_BASE,Include,48.6430474,17496123,17496123,17496123,2410.41,Region_8,TargetSampleable,10,10180010,MAN_MADE,RESERVOIR,40.94491896,-106.0119684,Johnson Reservoir,Johnson Reservoir,1.656716521,1.02E+13,TargetSampleable,Target_Sampled,S,NA,PROB,"(10,20]",CO,CO_NLA12NEW,48.6430474,CO_>4,-834542.2511,430038.0792,NA,S,S,Target
NLA12_CO-131,2,8025,8/17/2012,WMTNS,XER,17.39618854,No,NLA12NEW,NLA12_BASE,Include,48.6430474,17496123,17496123,17496123,2410.41,Region_8,TargetSampleable,10,10180010,MAN_MADE,RESERVOIR,40.94491896,-106.0119684,Johnson Reservoir,Johnson Reservoir,1.656716521,1.02E+13,TargetSampleable,Target_Sampled,S,NA,PROB,"(10,20]",CO,CO_NLA12NEW,48.6430474,CO_>4,-834542.2511,430038.0792,NA,S,S,Target
NLA12_CO-133,1,7827,8/8/2012,WMTNS,WMT,15.67964295,No,NLA12NEW,NLA12_BASE,Include,48.6430474,17013513,17013513,17013513,3329.18,Region_8,TargetSampleable,14,14080104,MAN_MADE,MAN_MADE,37.54114004,-107.5965489,CITY RESERVOIR,City Reservoir,2.123484174,1.41E+13,TargetSampleable,Target_Sampled,R,NA,PROB,"(10,20]",CO,CO_NLA12NEW,48.6430474,CO_>4,-1012441.586,66459.60289,R,B,R,Target
NLA12_CO-R01,1,8258,8/27/2012,WMTNS,WMT,130.9079857,No,NA,NA,NA,NA,1343650,1343650,1343650,2934,Region_8,TargetSampleable,14,14050005,NATURAL,NATURAL,39.9856728,-107.231024,TRAPPERS LAKE,Trappers Lake,6.588211364,1.41E+13,TargetSampleable,Target_Sampled,S,NLA06608-0079,HAND,NA,CO,NA,NA,NA,-948377.3246,334690.9175,R,S,S,Target
NLA12_CO-R04,1,7768,8/8/2012,WMTNS,WMT,79.39618467,No,NA,NA,NA,NA,2888150,2888150,2888150,1951.04,Region_8,TargetSampleable,10,10190005,MAN_MADE,MAN_MADE,40.2166095,-105.3725581,BUTTON ROCK RESERVOIR,Button Rock Reservoir,7.76769975,1.02E+13,TargetSampleable,Target_Sampled,R,NLA06608-0715,HAND,NA,CO,NA,NA,NA,-789455.7633,343421.571,R,B,R,Target
NLA12_CO-R07,1,8334,8/30/2012,WMTNS,WMT,2.544565294,No,NA,NA,NA,NA,1354798,1354798,1354798,3107.87,Region_8,TargetSampleable,14,14050001,MAN_MADE,MAN_MADE,40.14319362,-107.117692,SAND LAKE,Sand Lake,0.593021391,1.41E+13,TargetSampleable,Target_Sampled,S,NLA06608-3599,HAND,NA,CO,NA,NA,NA,-936791.182,351094.0753,R,S,S,Target
NLA12_CO-R10,1,8282,8/28/2012,WMTNS,WMT,1.889683719,No,NA,NA,NA,NA,3112461,3112461,3112461,2297.97,Region_8,TargetSampleable,14,14050002,NATURAL,NATURAL,40.17407647,-107.7039121,ALDRUIN LAKES (UPPER),NA,0.554843926,1.41E+13,TargetSampleable,Target_Sampled,S,NA,HAND,NA,CO,NA,NA,NA,-985518.1133,360458.1974,R,S,S,Target
